;codici-identificativi.isil;denominazioni.ufficiale;ente;indirizzo.via-piazza;tipologia-amministrativa;tipologia-funzionale;accesso.portatori-handicap;accesso.riservato;Lat;Long;comune
0;IT-AG0001;Biblioteca della Soprintendenza per i beni culturali e ambientali Pirro Marconi;Regione siciliana. Soprintendenza per i beni culturali e ambientali;Contrada S. Nicola;Regione;Specializzata;;True;37.3361677;13.5880717;Agrigento
1;IT-AG0005;Biblioteca dell'Archivio di Stato di Agrigento;Ministero dei beni e delle attività culturali e del turismo. Archivio di Stato di Agrigento;Via Mazzini 185;Direzione generale Archivi;Specializzata;;True;37.3221644312329;13.5886026454773;Agrigento
2;IT-AG0006;Biblioteca del Seminario vescovile;Seminario vescovile Molfetta;Piazza don Minzoni;Enti ecclesiastici;Specializzata;False;False;37.3137125;13.5749656;Agrigento
3;IT-AG0007;Biblioteca Comunale Franco La Rocca;Comune di Agrigento;Piazzale Aldo Moro n. 3;Comune;Importante non specializzata;True;False;37.3096114156152;13.5861396789551;Agrigento
4;IT-AG0008;Biblioteca comunale Santo Spirito. Sezione esterna di Giardina Gallotti;Comune di Agrigento;Via Belvedere 127;Comune;Pubblica;;False;37.4050904;13.5291051;Agrigento
5;IT-AG0009;Biblioteca popolare San Vito;;Via San Vito 6;NON SPECIFICATA;NON SPECIFICATA;;;37.3105394;13.5869401;Agrigento
6;IT-AG0010;Biblioteca Comunale;Comune d'Aragona;Piazza Umberto  I ;Comune - Istituzione comunale;Pubblica;;False;37.4800295;13.5458603;Aragona
7;IT-AG0011;Biblioteca comunale;Comune di Bivona;Piazza G. Marconi 43;Comune;Pubblica;;False;37.6184977;13.4405434;Bivona
8;IT-AG0012;Biblioteca comunale;Comune di Caltabellotta;Piazza Umberto I;Comune;Pubblica;;False;37.5768578;13.2157946;Caltabellotta
9;IT-AG0014;Biblioteca Comunale;Comune di Cammarata;Via dei Giardini;Comune;Pubblica;;False;37.6308269;13.6371923;Cammarata
10;IT-AG0016;Biblioteca comunale;Comune di Castrofilippo;Via Michelangelo n. 9;Comune;Pubblica;;False;37.350753;13.7501912;Castrofilippo
11;IT-AG0017;Biblioteca comunale;Comune di Cattolica Eraclea;Via collegio;Comune;Pubblica;;False;37.438755;13.3952266;Cattolica Eraclea
12;IT-AG0018;Biblioteca comunale Alessio Di Giovanni;Comune di Cianciana;Corso Vittorio Emanuele;Comune;Pubblica;;False;37.5264394;13.4336571;Cianciana
13;IT-AG0019;Biblioteca Comunale;Comune di Comitini;Piazza G. Bellacera 20;Comune;Pubblica;;False;37.4086694;13.6436159;Comitini
14;IT-AG0020;Biblioteca della Parrocchia della Beata Maria Vergine dell'Itria;;Via Beneficenza Mendola;NON SPECIFICATA;NON SPECIFICATA;;;37.3178646;13.6639854;Favara
15;IT-AG0021;Biblioteca del Circolo di cultura il Gattopardo;;Via Amendola 4;NON SPECIFICATA;NON SPECIFICATA;;;37.3211216;13.6624159;Favara
16;IT-AG0022;Biblioteca Comunale Barone Antonio Mendola;Comune di Favara;Piazza Cavour 56;Comune;Pubblica;;False;37.3147813;13.6604992;Favara
17;IT-AG0024;Biblioteca comunale Martin Luther King;Comune di Grotte;Via Fonte 3;Comune;Importante non specializzata;;False;37.4034467;13.7023793;Grotte
18;IT-AG0025;Biblioteca comunale;Comune di Joppolo Giancaxio;Via Torino;Comune;Pubblica;;False;37.3868747;13.5551581;Joppolo Giancaxio
19;IT-AG0027;Biblioteca Comunale Piersanti Mattarella;Comune di Lucca Sicula;Corso Vittorio Emanuele n. 123;Comune;Pubblica;;False;37.5786421572381;13.3070667306885;Lucca Sicula
20;IT-AG0028;Biblioteca popolare parrocchiale S. Giovanni;;;NON SPECIFICATA;NON SPECIFICATA;;;37.6198182;12.9665821;Menfi
21;IT-AG0029;Istituzione Culturale Federico II;Comune di Menfi;Via C. Ognibene n. 4;Comune;Importante non specializzata;;False;37.598265;12.96941;Menfi
22;IT-AG0030;Biblioteca Comunale Antonio Gramsci;Comune di Montallegro;Viale della Vittoria 113;Comune;Pubblica;;False;37.3890414;13.3519453;Montallegro
23;IT-AG0031;Biblioteca Comunale Feliciana;Comune di Naro;Piazza Garibaldi - Palazzo Comunale;Comune;Importante non specializzata;;False;37.2948287;13.7951239;Naro
24;IT-AG0033;Biblioteca comunale;Comune di Realmonte;Via Cosenza;Comune;Pubblica;;False;37.3059103;13.4639758;Realmonte
25;IT-AG0034;Biblioteca comunale Vincenzo Navarro;Comune di Sambuca di Sicilia;Via P. Caruso;Comune;Importante non specializzata;;False;37.647385;13.111555;Sambuca di Sicilia
26;IT-AG0036;Biblioteca comunale;Comune di San Biagio Platani;Corso Umberto 54;Comune;Pubblica;;False;37.5093493;13.526349;San Biagio Platani
27;IT-AG0037;Biblioteca Comunale;Comune di San Giovanni Gemini;Via Omero;Comune;Pubblica;;False;37.6304656;13.6498055;San Giovanni Gemini
28;IT-AG0038;Biblioteca Comunale;Comune di Sant'Angelo Muxaro;Piazza Umberto I;Comune;Pubblica;;False;37.4803233;13.5461917;Sant'Angelo Muxaro
29;IT-AG0039;Biblioteca Comunale;Comune di Santa Margherita di Belice;Via Regione Siciliana n. 20;Comune;Pubblica;;False;37.6973237;13.0113019;Santa Margherita di Belice
30;IT-AG0040;Biblioteca comunale G. Ansalone;Comune di Santo Stefano Quisquina;Via L. Panepinto;Comune;Pubblica;;False;37.623834;13.4912204;Santo Stefano Quisquina
31;IT-AG0041;Biblioteca del Collegio della congregazione del SS. Redentore;;Piazza Purgatorio 10;NON SPECIFICATA;NON SPECIFICATA;;;37.5676311;13.0587399;Sciacca
32;IT-AG0042;Biblioteca Comunale Tommaso Fazello;Comune di Sciacca;Via Roma n. 13;Comune;Importante non specializzata;;False;37.50703;13.082185;Sciacca
33;IT-AG0043;Biblioteca comunale Giuseppe Antonio Musso;Comune di Villafranca Sicula;Via Campi;Comune;Pubblica;;False;37.5864134;13.2906319;Villafranca Sicula
34;IT-AG0044;Biblioteca comunale Santo Spirito. Sezione esterna di Montaperto;Comune di Agrigento;Presso Scuola elementare - Via S. Giuseppe;Comune;Pubblica;;False;37.3111882;13.576956;Agrigento
35;IT-AG0045;Biblioteca comunale Santo Spirito. Sezione esterna di Villaseta;Comune di Agrigento;Via XX settembre;Comune;Pubblica;;False;37.298694;13.563071;Agrigento
36;IT-AG0046;Biblioteca del Centro culturale Pirandello;;Via Dante 105;NON SPECIFICATA;NON SPECIFICATA;;;37.3096807;13.5762527;Agrigento
37;IT-AG0047;Biblioteca del Patronato ACLI;;Via Dinoloco 3;NON SPECIFICATA;NON SPECIFICATA;;;37.3082862;13.5826647;Agrigento
38;IT-AG0048;Biblioteca della Camera di commercio, industria, artigianato e agricoltura;;Piazza Gallo;NON SPECIFICATA;NON SPECIFICATA;;;37.3111996;13.5790995;Agrigento
39;IT-AG0049;Biblioteca di cinema e spettacolo Efebo d'Oro;;Via Empedocle 159;NON SPECIFICATA;NON SPECIFICATA;;;37.3098486;13.5824546;Agrigento
40;IT-AG0050;Biblioteca internazionale pirandelliana. Centro studi pirandelliani;;Via S. Lucia 27;NON SPECIFICATA;NON SPECIFICATA;;True;37.3108758;13.578572;Agrigento
41;IT-AG0051;Biblioteca Comunale Falcone - Borsellino;Comune di Alessandria della Rocca;Piazza Luigi Ingo n. 8;Comune;Pubblica;;False;37.5683954;13.4556857;Alessandria della Rocca
42;IT-AG0052;Biblioteca popolare San Paolo della Croce. Convento dei padri passionisti;;Santuario Madonna della Rocca;NON SPECIFICATA;NON SPECIFICATA;;;37.5681904;13.4543342;Alessandria della Rocca
43;IT-AG0053;Biblioteca comunale;Comune di Aragona;Via Palestrina;Comune;Pubblica;;False;37.4044279;13.6184829;Aragona
44;IT-AG0054;Biblioteca comunale;;Via Nazionale 1;NON SPECIFICATA;NON SPECIFICATA;;;37.6009891;13.2874447;Burgio
45;IT-AG0055;Biblioteca comunale;Comune di Calamonaci;Piazza municipio;NON SPECIFICATA;NON SPECIFICATA;;True;37.5257432;13.2911904;Calamonaci
46;IT-AG0058;Biblioteca comunale;Comune di Canicatti';Via Cavallotti 9;Comune;Pubblica;;False;37.3585208;13.8492245;Canicattì
47;IT-AG0059;Biblioteca dell'Ospedale civile Barone Lombardo;;Via P. Micca;NON SPECIFICATA;NON SPECIFICATA;;;37.3597826;13.8532322;Canicattì
48;IT-AG0060;Biblioteca Comunale;Comune di Casteltermini;Via Roma 4;Comune;Pubblica;;False;37.5405211;13.6400753;Casteltermini
49;IT-AG0061;Biblioteca popolare don Gerlando Re;;C/o Acli - Corso Comm. Cinquemani Arcuri;NON SPECIFICATA;NON SPECIFICATA;;;37.5208;13.436335;Cianciana
50;IT-AG0062;Biblioteca comunale;Comune di Lampedusa e Linosa;Presso Delegazione municipale;Comune;Pubblica;;True;35.5027009;12.6091837;Lampedusa e Linosa
51;IT-AG0064;Biblioteca comunale;Comune di Montevago;Piazza della Repubblica 7;Comune;Importante non specializzata;;False;37.7026377;12.9901325;Montevago
52;IT-AG0065;Biblioteca Comunale Giovanni Falcone;Comune di Palma di Montechiaro;Via Carlo Marx n. 3;Comune;Importante non specializzata;;False;37.1895107;13.7694488;Palma di Montechiaro
53;IT-AG0066;Biblioteca comunale;Comune di Porto Empedocle;Palazzo comunale - Via Roma;Comune;Pubblica;;False;37.2885843;13.5280378;Porto Empedocle
54;IT-AG0067;Biblioteca comunale;Comune di Racalmuto;Via Messana;Comune;Pubblica;;False;37.4069215;13.7327047;Racalmuto
55;IT-AG0068;Biblioteca popolare Virtus Matrice;Chiesa Madre di Racalmuto;Via della Repubblica 2;Enti ecclesiastici;Pubblica;;False;37.40868;13.732503;Racalmuto
56;IT-AG0069;Biblioteca comunale;Comune di Raffadali;Via Nazionale;Comune;Pubblica;;False;37.4097845;13.5275723;Raffadali
57;IT-AG0070;Biblioteca comunale;Comune di Ravanusa;Corso della Repubblica;Comune;Pubblica;;False;37.2679233;13.9750838;Ravanusa
58;IT-AG0071;Biblioteca comunale Antonio Gramsci;Comune di Ribera;Piazza Duomo;Comune;Pubblica;;False;37.5024753;13.2659348;Ribera
59;IT-AG0072;Biblioteca comunale;Comune di Santa Elisabetta;Corso Umberto 45;Comune;Pubblica;;False;37.431386;13.558815;Santa Elisabetta
60;IT-AG0073;Biblioteca Belluno;;Via Pordenone 8;NON SPECIFICATA;NON SPECIFICATA;;;37.6866426;13.0241726;Santa Margherita di Belice
61;IT-AG0074;Biblioteca degli Ospedali civili riuniti;;Via Figuli;NON SPECIFICATA;NON SPECIFICATA;;;37.506355;13.0896534;Sciacca
62;IT-AG0075;Biblioteca comunale;;Piazza municipio;NON SPECIFICATA;NON SPECIFICATA;;;37.3929721;13.3496118;Siculiana
63;IT-AG0078;Biblioteca della Provincia regionale di Agrigento;Provincia di Agrigento;Piazzale A. Moro 3;Provincia;Specializzata;;False;37.3095106;13.5860526;Agrigento
64;IT-AG0079;Biblioteca comunale Santo Spirito. Sezione esterna di Fontanelle;Comune di Agrigento;Via Fontanelle 33  - presso Centro civico commerciale;Comune;Pubblica;;False;37.3374874377752;13.5837707552948;Agrigento
65;IT-AG0080;Biblioteca comunale Santo Spirito. Sezione esterna di Villaggio Mosè;Comune di Agrigento;Via Meli 1;Comune;Pubblica;;False;37.2723212;13.6270158;Agrigento
66;IT-AG0085;Biblioteca Lucchesiana;Deputazione dei canonici della biblioteca Lucchesiana;Via Duomo 94;Accademie, associazioni, fondazioni, istituti, societa' (privati);Importante non specializzata;;False;37.3135702;13.577717;Agrigento
67;IT-AG0087;Biblioteca dell'Opera Pia Villa Betania;Opera Pia Villa Betania;Via C. Marx 2;Accademie, associazioni, fondazioni, istituti, societa' (privati);Pubblica;;False;37.2966933;13.5661325;Agrigento
68;IT-AG0089;Biblioteca Comunale L. Vitali;Comune di Licata;Piazza Progresso n. 10;Comune;Importante non specializzata;;False;37.1011276;13.9374357;Licata
69;IT-AG0090;Biblioteca comunale;Comune di Campobello di Licata;Via Sammarco 1;Comune;Pubblica;;False;37.2560726;13.9187469;Campobello di Licata
70;IT-AG0091;Biblioteca Museo Luigi Pirandello;Regione siciliana;Via Imera 50;Regione;Specializzata;;False;37.3124703;13.5857746;Agrigento
71;IT-AG0092;Biblioteca della Comunità Cristiani nel mondo;;Via Piersanti Mattorella 2;NON SPECIFICATA;NON SPECIFICATA;;False;37.3510809;13.750604;Favara
72;IT-AG0093;Biblioteca della Fondazione Leonardo Sciascia;Fondazione Leonardo Sciascia;V.le della vittoria, 3 ;Accademie, associazioni, fondazioni, istituti (pubblici);Specializzata;;False;37.4059861;13.7309295;Racalmuto
73;IT-AG0094;Biblioteca Verba volant;Ministero dell'istruzione, dell'università e della ricerca;Via Acrone 23;Presidenza del consiglio dei ministri e ministeri;Scolastica;;;37.3089681;13.5834971;Agrigento
74;IT-AG0095;Biblioteca dell'Istituto Comprensivo Anna Frank;Ministero dell'istruzione, dell'università e della ricerca;Via Matteo Cimarra, 5/a;Presidenza del consiglio dei ministri e ministeri;Scolastica;;;37.3208802;13.5821441;Agrigento
75;IT-AG0096;Biblioteca del Circolo didattico S.G. Bosco;;Via Dante 258;NON SPECIFICATA;NON SPECIFICATA;;;37.311634;13.5705384;Agrigento
76;IT-AG0097;Biblioteca dell'Istituto professionale per i servizi commerciali e turistici Nicolò Gallo;Ministero dell'istruzione, dell'università e della ricerca;Via Regione siciliana;Presidenza del consiglio dei ministri e ministeri;Scolastica;;;37.3211324;13.5782564;Agrigento
77;IT-AG0098;Biblioteca Comunale;Comune di Camastra;Via Vittorio Veneto;Comune;Pubblica;;False;37.2534645;13.792158;Camastra
78;IT-AG0099;Biblioteca della Fondazione Giovanni Guarino Amella;Fondazione Giovanni Guarino Amella;Contrada Montagna c.p. 1311;Accademie, associazioni, fondazioni, istituti, societa' (privati);Specializzata;;;37.3586112;13.8477121;Canicattì
79;IT-AG0134;Biblioteca del Polo didattico di Agrigento. Università degli studi di Palermo;Università degli studi di Palermo;Via Ugo La Malfa;Universita' statali;Istituto di insegnamento superiore;True;False;37.3020872850997;13.5929968772461;Agrigento
80;IT-AL0001;Biblioteca civica;Comune di Acqui Terme;Via Maggiorino Ferraris 15;Comune;Pubblica;;False;44.6775182;8.4670569;Acqui Terme
81;IT-AL0002;Biblioteca civica Francesca Calvo;Comune di Alessandria;Piazza Vittorio Veneto 1;Comune;Pubblica;;False;44.9114484;8.6193907;Alessandria
82;IT-AL0003;Biblioteca dell'Archivio di Stato di Alessandria;Ministero dei beni e delle attività culturali e del turismo. Archivio di Stato di Alessandria;Via Giorgio Solero 43;Direzione generale Archivi;Specializzata;;True;44.9137392;8.6259887;Alessandria
83;IT-AL0004;Biblioteca diocesana del Seminario vescovile;Seminario Diocesano;Via Inviziati, 1;Enti ecclesiastici;Importante non specializzata;False;False;44.9169522;8.6130294;Alessandria
84;IT-AL0005;Biblioteca militare del Presidio;Ministero della difesa;Piazza San Martino;Presidenza del consiglio dei ministri e ministeri;NON SPECIFICATA;;;44.91564;8.606235;Alessandria
85;IT-AL0006;Biblioteca delle Societa' di storia, arte e archeologia per le province di Alessandria e Asti;Societa' di storia, arte e archeologia per le province di Alessandria e Asti;Via Plana 42;Accademie, associazioni, fondazioni, istituti (pubblici);Specializzata;;False;44.9148321;8.6186655;Alessandria
86;IT-AL0007;Biblioteca della Camera di commercio, industria, artigianato e agricoltura - CCIAA;Camera di commercio, industria, artigianato e agricoltura - CCIAA di Alessandria;Via San Lorenzo 21;Camere di commercio, industria, artigianato;Specializzata;;False;44.9130405;8.614091;Alessandria
87;IT-AL0008;Biblioteca civica;Comune di Alfiano Natta;Via Roma 6;Comune;Pubblica;;False;45.0470654;8.2085733;Alfiano Natta
88;IT-AL0009;Biblioteca civica;Comune di Alice Bel Colle;Piazza Guacchione 1;Comune;Pubblica;;False;44.725691;8.4511626;Alice Bel Colle
89;IT-AL0011;"Biblioteca civica ""Gaetano Poggi""";Comune di Arquata Scrivia;Piazza S. Bertelli 19;Comune;Pubblica;;False;44.686673;8.88599199999999;Arquata Scrivia
90;IT-AL0013;Biblioteca civica;Comune di Bassignana;Via Cavour 6;Comune;Pubblica;;False;45.003353;8.73610699999995;Bassignana
91;IT-AL0014;Biblioteca civica;Comune di Bistagno;Corso Carlo Testa 3;Comune;Pubblica;;False;44.6602097;8.3699538;Bistagno
92;IT-AL0015;Biblioteca civica;Comune di Borghetto di Borbera;Piazza Europa, 13;Comune;Pubblica;;False;44.7309963;8.9452855;Borghetto di Borbera
93;IT-AL0016;Biblioteca civica Pio e Ildegarda Occella;Comune di Bosco Marengo;Via L. Verde;Comune;Pubblica;;False;44.822143;8.676652;Bosco Marengo
94;IT-AL0017;Biblioteca civica;Comune di Bosio;Via Umberto I  50;Comune;Pubblica;;False;44.6469431;8.7911112;Bosio
95;IT-AL0020;Biblioteca civica Ferrero;Comune di Carpeneto;Piazza Municipio 6;Comune;Pubblica;;False;44.5627149;9.2176371;Carpeneto
96;IT-AL0021;Biblioteca civica Fedele Barco;Comune di Casal Cermelli;Piazza San Carlo 8;Comune;Pubblica;;False;44.8351618;8.6260029;Casal Cermelli
97;IT-AL0023;Biblioteca dell'UNICEM;UNICEM;;NON SPECIFICATA;NON SPECIFICATA;;;45.1263017;8.4690695;Casale Monferrato
98;IT-AL0024;Biblioteca del Seminario vescovile;"Fondazione ""Biblioteca del Seminario""";Piazza Calabiana, 1;Enti ecclesiastici;Importante non specializzata;False;False;45.1375546;8.4546372;Casale Monferrato
99;IT-AL0026;Biblioteca civica;Comune di Cassano Spinola;Piazza XXVI Aprile 8;Comune;Pubblica;;False;44.766162;8.863507;Cassano Spinola
100;IT-AL0027;Biblioteca civica;Comune di Cassine;Via IV Marzo 13/a;Comune;Pubblica;;False;44.749645;8.527466;Cassine
101;IT-AL0029;Biblioteca civica;Comune di Castellar Guidobono;Piazza San Tommaso 1;Comune;Pubblica;;False;44.90638;8.94657;Castellar Guidobono
102;IT-AL0030;Biblioteca civica Francesco Poggio;Comune di Castellazzo Bormida;Via XXV Aprile 44;Comune;Pubblica;;False;44.845581;8.577113;Castellazzo Bormida
103;IT-AL0031;Biblioteca civica;Comune di Castelletto d'Orba;Piazza G. Marconi 1;Comune;Pubblica;;False;44.6703782;8.7298766;Castelletto d'Orba
104;IT-AL0032;Biblioteca civica;Comune di Castelnuovo Bormida;Via Roma 42;Comune;Pubblica;;False;44.746248;8.551308;Castelnuovo Bormida
105;IT-AL0033;Biblioteca civica Pier Angelo Soldini;Comune di Castelnuovo Scrivia;Via G. Garibaldi 49;Comune;Pubblica;;False;44.9798479;8.8810753;Castelnuovo Scrivia
106;IT-AL0034;Biblioteca civica;Comune di Castelspina;Piazza Boccasso 3;Comune;Pubblica;;False;44.8042668;8.5829296;Castelspina
107;IT-AL0036;Biblioteca civica;Comune di Cella Monte;Via Francia 12;Comune;Pubblica;;False;45.0741078;8.3918688;Cella Monte
108;IT-AL0037;Biblioteca civica;Comune di Cereseto;Via Roma 32;Comune;Pubblica;;False;45.0861082;8.3168437;Cereseto
109;IT-AL0038;Biblioteca civica;Comune di Conzano;Via C. Vidua 10;Comune;Pubblica;;False;45.0208632;8.454491;Conzano
110;IT-AL0039;Biblioteca civica;Comune di Frassineto Po;Piazza del Municipio 6;Comune;Pubblica;;False;45.134055;8.5360909;Frassineto Po
111;IT-AL0040;Biblioteca civica;Comune di Frugarolo;Via San Pio V;Comune;Pubblica;;False;44.8379796;8.6805468;Frugarolo
112;IT-AL0041;Biblioteca civica;Comune di Fubine;Via Pavaranza 2;Comune;Pubblica;;False;44.96541;8.4255838;Fubine
113;IT-AL0042;Biblioteca civica Giovanni Canna;Comune di Gabiano;Piazza Europa 4;Comune;Pubblica;;False;45.1590286;8.1935431;Gabiano
114;IT-AL0046;Biblioteca civica Giuseppe Boffito;Comune di Gavi;Via G. Garibaldi 44;Comune;Pubblica;;False;44.6889274;8.8036272;Gavi
115;IT-AL0047;Biblioteca comunale;Comune di Giarole;Via Pasquarelli, 2;Comune;Pubblica;False;False;45.0594224;8.56782720000001;Giarole
116;IT-AL0048;Biblioteca civica;Comune di Mirabello Monferrato;Piazza G. Marconi 17;Comune;Pubblica;;False;45.0357034;8.5229468;Mirabello Monferrato
117;IT-AL0049;Biblioteca del Santuario di Nostra Signora delle Rocche;Passionisti. Santuario di Nostra Signora delle Rocche;Santuario delle Rocche;Enti ecclesiastici;Specializzata;;True;44.600758;8.5875915;Molare
118;IT-AL0050;Biblioteca civica;Comune di Molare;Via Raggi 25;Comune;Pubblica;;False;44.6196939;8.5994867;Molare
119;IT-AL0053;Biblioteca civica;Comune di Montaldo Bormida;Piazza Giovanni XXIII;Comune;Pubblica;True;False;44.6833554;8.5888278;Montaldo Bormida
120;IT-AL0054;Biblioteca civica;Comune di Montechiaro d'Acqui;Via Nazionale 14;Comune;Pubblica;;False;44.5991038;8.353051;Montechiaro d'Acqui
121;IT-AL0055;Biblioteca civica Giuseppe Piotta;Comune di Morano sul Po;Via G. Marconi 1;Comune;Pubblica;;False;45.1637146;8.3660303;Morano sul Po
122;IT-AL0056;Biblioteca civica Rosanna Benzi;Comune di Morbello;Via Roma 1;Comune;Pubblica;;False;44.6035985;8.5102163;Morbello
123;IT-AL0058;Biblioteca civica;Comune di Morsasco;Piazza Vittorio Emanuele II - presso il Castello;Comune;Pubblica;;False;44.6664808255252;8.55155531139224;Morsasco
124;IT-AL0059;Biblioteca civica;Comune di Murisengo;Piazza della Vittoria;Comune;Pubblica;;False;45.0835502;8.1374019;Murisengo
125;IT-AL0060;Biblioteca civica;Comune di Novi Ligure;Via G. Marconi, 66;Comune;Pubblica;;False;44.7611125;8.7829103;Novi Ligure
126;IT-AL0062;Biblioteca civica;Comune di Occimiano;Piazza Carlo Alberto 1;Comune;Pubblica;;False;45.0599293;8.5068152;Occimiano
127;IT-AL0063;Biblioteca civica;Comune di Odalengo Grande;Piazza S. Defendente 2;Comune;Pubblica;;False;45.1093802;8.1666328;Odalengo Grande
128;IT-AL0067;Biblioteca civica;Comune di Ozzano Monferrato;Via S. Maria 1;Comune;Pubblica;;False;45.1018158;8.3764622;Ozzano Monferrato
129;IT-AL0068;Biblioteca civica;Comune di Pareto;Via Mioglia 24;Comune;Pubblica;;False;44.5138669;8.3856667;Pareto
130;IT-AL0070;Biblioteca civica Federico Ragni;Comune di Piovera;Piazza San Giovanni 5;Comune;Pubblica;;False;44.9593205;8.7348802;Piovera
131;IT-AL0071;Biblioteca civica;Comune di Pontecurone;Piazza G. Matteotti 1;Comune;Pubblica;;False;44.9604549;8.9326546;Pontecurone
132;IT-AL0072;Biblioteca civica;Comune di Pontestura;Piazza Castello 20;Comune;Pubblica;;False;45.1434752;8.333294;Pontestura
133;IT-AL0073;Biblioteca civica Tommaso e Angiolina Battaglia;Comune di Ponzone;Piazza Italia;Comune;Pubblica;;False;44.5882327;8.4586825;Ponzone
134;IT-AL0074;Biblioteca antica del Castello;Comune di Pozzolo Formigaro;Piazza Castello 1;Comune;Specializzata;;True;44.7934548;8.7815595;Pozzolo Formigaro
135;IT-AL0075;Biblioteca civica Caterina De Marco;Comune di Pozzolo Formigaro;Piazza Castello 1;Comune;Pubblica;;False;44.7934548;8.7815595;Pozzolo Formigaro
136;IT-AL0077;Biblioteca civica;Comune di Prasco;Via Roma 2;Comune;Pubblica;;False;44.640893;8.553234;Prasco
137;IT-AL0078;Biblioteca civica A. Pesce;Comune di Predosa;Piazza G. Matteotti 8;Comune;Pubblica;;False;44.7525854;8.6583719;Predosa
138;IT-AL0080;Biblioteca civica;Comune di Rivalta Bormida;Via Vittorio Emanuele II  2;Comune;Pubblica;;False;44.7112345;8.5504276;Rivalta Bormida
139;IT-AL0082;Biblioteca civica;Comune di Rocca Grimalda;Piazza Vittorio Veneto 1;Comune;Pubblica;;False;44.671213;8.6477403;Rocca Grimalda
140;IT-AL0084;Biblioteca civica;Comune di Sala Monferrato;Via Roma 1;Comune;Pubblica;;False;45.0754056;8.3581766;Sala Monferrato
141;IT-AL0085;Biblioteca civica Alessandro Molinari;Comune di Sale;Via G. Bruno 13;Comune;Pubblica;;False;44.981598;8.810068;Sale
142;IT-AL0086;Biblioteca civica;Comune di San Giorgio Monferrato;Piazza della Chiesa 1;Comune;Pubblica;;False;45.1077481;8.4144266;San Giorgio Monferrato
143;IT-AL0087;"Biblioteca comunale ""Domenico Fava""";Comune di San Salvatore Monferrato;Via Cavalli 2;Comune;Pubblica;;False;44.9945499886812;8.567960777385;San Salvatore Monferrato
144;IT-AL0089;Biblioteca civica;Comune di Serravalle Scrivia;Piazza G. Carducci 2;Comune;Pubblica;;False;44.722731;8.85785;Serravalle Scrivia
145;IT-AL0090;Biblioteca civica;Comune di Sezzadio;Piazza Libertà 37;Comune;Pubblica;;False;44.785671;8.5721118;Sezzadio
146;IT-AL0091;Biblioteca civica;Comune di Solero;Via G. Marconi 1;Comune;Pubblica;;False;44.9195173;8.5077366;Solero
147;IT-AL0092;Biblioteca civica;Comune di Solonghello;Piazza Castello 1;Comune;Pubblica;;False;45.1309507;8.2816083;Solonghello
148;IT-AL0093;Biblioteca civica;Comune di Spigno Monferrato;Piazza G. Garibaldi 19;Comune;Pubblica;;False;44.5429699;8.3351063;Spigno Monferrato
149;IT-AL0094;Biblioteca civica;Comune di Stazzano;Piazza Risorgimento 4;Comune;Pubblica;;False;44.7269445;8.867483;Stazzano
150;IT-AL0095;Biblioteca civica;Comune di Strevi;Piazza G. Matteotti 8;Comune;Pubblica;;False;44.698461;8.5222165;Strevi
151;IT-AL0098;Biblioteca civica;Comune di Terzo;Via Gallaretto 11;Comune;Pubblica;;False;44.6696219;8.4209876;Terzo
152;IT-AL0099;Biblioteca civica;Comune di Ticineto;Via Vittorio Veneto 10;Comune;Pubblica;;False;45.09608;8.55517;Ticineto
153;IT-AL0100;Biblioteca civica;Comune di Tortona;Via Ammiraglio Mirabello 1;Comune;Pubblica;;False;44.898288;8.8680629;Tortona
154;IT-AL0101;Biblioteca del Seminario diocesano;Seminario Diocesano di Tortona;Via Seminario , 7;Enti ecclesiastici;Specializzata;True;False;44.8976286;8.8664597;Tortona
155;IT-AL0102;Biblioteca civica;Comune di Treville;Via Roma 17;Comune;Pubblica;;False;45.097273;8.359639;Treville
156;IT-AL0104;Biblioteca civica;Comune di Valenza;Piazza XXXI Martiri 1;Comune;Pubblica;False;False;45.012268;8.6441846;Valenza
157;IT-AL0105;Biblioteca civica;Comune di Valmacca;Via Ticineto;Comune;Pubblica;;False;45.1001462;8.5785915;Valmacca
158;IT-AL0106;Biblioteca civica;Comune di Vignole Borbera;Viale Vochieri 2;Comune;Pubblica;;False;44.7084832;8.8905891;Vignole Borbera
159;IT-AL0107;Biblioteca civica;Comune di Villadeati;Piazza Martiri 6;Comune;Pubblica;;False;45.0708737;8.1651713;Villadeati
160;IT-AL0108;Biblioteca civica Giuseppe Demichelis;Comune di Villanova Monferrato;Via Alzona 13;Comune;Pubblica;;False;45.1820229;8.4780347;Villanova Monferrato
161;IT-AL0110;Biblioteca civica;Comune di Basaluzzo;Via S. Maria 1;Comune;Pubblica;;True;44.7678912;8.7087182;Basaluzzo
162;IT-AL0111;Biblioteca dei Salesiani Don Bosco;Salesiani. Collegio San Carlo di Borgo San Martino;Collegio San Carlo - Via Roma 1;Enti ecclesiastici;Specializzata;;False;45.0894811;8.5237404;Borgo San Martino
163;IT-AL0112;Biblioteca civica;Comune di Cabella Ligure;Via Cavour;Comune;Pubblica;;False;44.6730016;9.0966022;Cabella Ligure
164;IT-AL0113;Biblioteca civica;Comune di Brignano Frascata;Municipio;Comune;Pubblica;;False;44.8280475;9.0061731;Brignano-Frascata
165;IT-AL0114;Biblioteca civica Giovanni Canna;Comune di Casale Monferrato;Via Corte d'appello 12;Comune;Importante non specializzata;;False;45.1340432;8.4522332;Casale Monferrato
166;IT-AL0118;Biblioteca civica;Comune di Castelletto Merli;Via Roma 17;Comune;Pubblica;;False;45.068907;8.241619;Castelletto Merli
167;IT-AL0119;Biblioteca civica;Comune di Cerrina;Piazza Martiri internati;Comune;Pubblica;;False;45.120231;8.2153425;Cerrina Monferrato
168;IT-AL0120;Biblioteca civica Elena Cavallero;Comune di Felizzano;Piazza Ercole;Comune;Pubblica;;False;44.897853;8.4356672;Felizzano
169;IT-AL0121;Centro di documentazione della Comunita' montana valli Curone Grue Ossona;Comunita' montana valli Curone Grue Ossona;;Comunita' montana;Specializzata;;False;44.7848854;9.1475906;Fabbrica Curone
170;IT-AL0122;Biblioteca civica;Comune di Fresonara;Via G. Marconi 69;Comune;Pubblica;;False;44.7815841;8.6904218;Fresonara
171;IT-AL0123;Biblioteca civica coniugi Maria ed Eraldo Ighina;Comune di Ovada;Piazza Cereseto 7;Comune;Pubblica;;False;44.639405;8.6457583;Ovada
172;IT-AL0124;Biblioteca civica;Comune di Pietra Marazzi;Piazza Umberto I  1;Comune;Pubblica;;False;44.944098;8.670661;Pietra Marazzi
173;IT-AL0127;Biblioteca civica;Comune di Vignale Monferrato;Piazza del Popolo;Comune;Pubblica;;False;45.0107008;8.3965173;Vignale Monferrato
174;IT-AL0128;Biblioteca civica;Comune di Viguzzolo;Piazza Libertà 8;Comune;Pubblica;;False;44.9051714;8.919159;Viguzzolo
175;IT-AL0130;Biblioteca del Seminario vescovile monsignor C. G. Capra;Seminario vescovile;Piazza Duomo, 6;Enti ecclesiastici;Specializzata;True;False;44.6742314;8.4706708;Acqui Terme
176;IT-AL0131;Biblioteca del Club alpino italiano - CAI;Club alpino italiano - CAI;Via Monteverde 44;Accademie, associazioni, fondazioni, istituti (pubblici);Specializzata;;True;44.6731213;8.4695578;Acqui Terme
177;IT-AL0134;Biblioteca del Conservatorio statale di musica Antonio Vivaldi;Ministero dell'istruzione, dell'università e della ricerca. Conservatorio statale di musica Antonio Vivaldi di Alessandria;Via Parma 1;Presidenza del consiglio dei ministri e ministeri;Specializzata;;True;44.912547;8.6173034;Alessandria
178;IT-AL0135;Biblioteca dell'Istituto per la storia della Resistenza e della societa' contemporanea in provincia di Alessandria - ISRAL;Istituto per la storia della Resistenza e della societa' contemporanea in provincia di Alessandria;Via dei Guasco 49;Consorzio e/o associazioni di regioni, provincie, comuni e comunità montane;Specializzata;;False;44.9165177;8.6168208;Alessandria
179;IT-AL0142;Biblioteca dell'Istituto sperimentale per la pioppicultura;Societa' agricola forestale - SAF. Istituto sperimentale per la pioppicultura;Strada per Frassineto Po 32;Accademie, associazioni, fondazioni, istituti, societa' (privati);Specializzata;;True;45.1358;8.484635;Casale Monferrato
180;IT-AL0143;Biblioteca dell'Archivio vescovile;Curia vescovile di Acqui Terme;Piazza Duomo 4;Enti ecclesiastici;Specializzata;;True;44.6742314;8.4706708;Acqui Terme
181;IT-AL0144;Biblioteca e archivio storico della Cassa di risparmio di Alessandria;Cassa di risparmio di Alessandria;Via Dante 2;Accademie, associazioni, fondazioni, istituti, societa' (privati);Specializzata;;True;44.9137084;8.6170965;Alessandria
182;IT-AL0145;Biblioteca e centro di documentazione del Gruppo volontariato assistenza handicappati;Gruppo volontariato assistenza handicappati - GVA;Piazza S. Francesco 1;Accademie, associazioni, fondazioni, istituti, societa' (privati);Specializzata;;True;44.6766694;8.4704869;Acqui Terme
183;IT-AL0146;Biblioteca del Seminario teologico Don Orione;Piccola Opera della Divina Provvidenza. Istituto teologico Don Orione di Tortona;Via Sparpaglione 15;Enti ecclesiastici;Specializzata;;False;44.8876702;8.8585292;Tortona
184;IT-AL0147;Biblioteca diocesana;"Fondazione ""Biblioteca del Seminario""";via Liutprando, 1;Enti ecclesiastici;Importante non specializzata;False;False;45.137211;8.4534659;Casale Monferrato
185;IT-AL0148;Biblioteca del Convento dei Padri Cappuccini;Frati Minori Cappuccini. Convento di Alessandria;Via San Francesco d'Assisi 13;Enti ecclesiastici;Specializzata;;True;44.9110231;8.6106281;Alessandria
186;IT-AL0149;Biblioteca del Parco naturale e area attrezzata del Sacro Monte di Crea;Parco naturale e area attrezzata del Sacro Monte di Crea;;Regione;Specializzata;;False;45.0854671;8.2632261;Ponzano Monferrato
187;IT-AL0150;Biblioteca del Gruppo archeologico del Basso Piemonte;Gruppo archeologico del Basso Piemonte;Via Mazzini 46;Accademie, associazioni, fondazioni, istituti (pubblici);Specializzata;;False;44.9151217;8.6177034;Alessandria
188;IT-AL0151;Biblioteca civica;Comune di Alluvioni Cambio';Via Roma 47;Comune;Pubblica;;False;44.99874;8.783085;Alluvioni Cambiò
189;IT-AL0152;Biblioteca dell'Accademia urbense di Ovada - Archivio Alto Monferrato;Accademia urbense di Ovada;Piazza Cereseto 7;Accademie, associazioni, fondazioni, istituti, societa' (privati);Specializzata;;False;44.639405;8.6457583;Ovada
190;IT-AL0153;Biblioteca del Dipartimento di Scienze e Innovazione tecnologica dell' Università degli Studi del Piemonte orientale A. Avogadro;Ministero dell'istruzione, dell'università e della ricerca. Dipartimento di Scienze e Innovazione tecnologica dell' Università degli Studi del Piemonte orientale A. Avogadro;Viale Teresa Michel, 11 ;Universita' statali;Istituto di insegnamento superiore;True;False;44.9227495;8.6167519;Alessandria
191;IT-AL0154;Biblioteca dell'Azienda teatrale alessandrina;Azienda teatrale alessandrina - ATA;Via Savona 3;Accademie, associazioni, fondazioni, istituti, societa' (privati);Specializzata;;True;44.9082186;8.6116229;Alessandria
192;IT-AL0155;Biblioteca del Dipartimento di scienze giuridiche ed economiche dell'Università degli studi del Piemonte orientale Amedeo Avogadro. Sede di Alessandria;Università degli studi del Piemonte orientale Amedeo Avogadro. Sede di Alessandria. Dipartimento di scienze giuridiche ed economiche;Via Cavour 84;Universita' statali;Istituto di insegnamento superiore;;True;44.9087392;8.6156468;Alessandria
193;IT-AL0156;Biblioteca Norberto Bobbio.Università degli studi del Piemonte orientale Amedeo Avogadro;Università degli studi del Piemonte orientale Amedeo Avogadro. Dipartimento di politiche pubbliche e scelte collettive e Dipartimento di ricerca sociale;Via Cavour 84;Universita' statali;Istituto di insegnamento superiore;;True;44.9087392;8.6156468;Alessandria
194;IT-AL0157;Biblioteca dell'ex Ospedale psichiatrico San Giacomo;USSL 70 Alessandria;Spalto Marengo 35;Aziende ed enti del servizio sanitario nazionale;Specializzata;;True;44.917808;8.620565;Alessandria
195;IT-AL0158;Biblioteca dell'Ospedale civile Santi Antonio e Biagio;USSL 70 Alessandria;Via Venezia 18;Aziende ed enti del servizio sanitario nazionale;Specializzata;;False;44.9153962;8.6204103;Alessandria
196;IT-AL0159;Biblioteca civica;Comune di Camagna;Via G. Matteotti 22;Comune;Pubblica;;False;45.0179904;8.430448;Camagna Monferrato
197;IT-AL0160;Biblioteca civica;Comune di Carbonara Scrivia;Municipio;Comune;Pubblica;;False;44.8501666;8.8709629;Carbonara Scrivia
198;IT-AL0161;Biblioteca civica;Comune di Sardigliano;Piazza R. Caretta 7;Comune;Pubblica;;False;44.75243;8.895883;Sardigliano
199;IT-AL0162;Biblioteca del Convento dei Padri Cappuccini;Frati Minori Cappuccini. Convento di Tortona;Viale San Francesco 1;Enti ecclesiastici;Specializzata;;True;44.8970651;8.8712313;Tortona
200;IT-AL0163;Biblioteca del Santuario di Nostra Signora di Crea;;;NON SPECIFICATA;NON SPECIFICATA;;;45.1012592;8.2831296;Serralunga di Crea
201;IT-AL0164;Biblioteca medico scientifica;Azienda ospedaliera nazionale SS. Antonio e Biagio e Cesare Arrigo ;Via XXX Aprile, 30;Aziende ed enti del servizio sanitario nazionale;Specializzata;;False;44.910762;8.71055;Alessandria
202;IT-AL0165;Biblioteca civica;Comune di Balzola;Via Roma 75;Comune;Pubblica;;False;45.1828535;8.402165;Balzola
203;IT-AL0166;Biblioteca civica;Comune di Terruggia;Via Prato 12;Comune;Pubblica;;False;45.0837805;8.4403936;Terruggia
204;IT-AL0167;Biblioteca dell'Istituto diocesano di musica sacra;;Via del Seminario 3/a;NON SPECIFICATA;NON SPECIFICATA;;;44.8976286;8.8664597;Tortona
205;IT-AL0168;Biblioteca della Scuola media statale Leardi;"Ministero dell'istruzione, dell'università e della ricerca. Scuola secondaria di primo grado ""Leardi""";Via Gonzaga 21;Presidenza del consiglio dei ministri e ministeri;Scolastica;;;45.1355689;8.45759410000005;Casale Monferrato
206;IT-AL0169;Biblioteca civica G. Borghello;Comune di Albera Ligure;Via Roma 1;Comune;Pubblica;;False;44.7024643;9.06574;Albera Ligure
207;IT-AL0170;Biblioteca del tiro a segno nazionale;Tiro a Segno Nazionale di Alessandria;Via Giordano Bruno 73;Accademie, associazioni, fondazioni, istituti (pubblici);Specializzata;;True;44.9242781434134;8.59542883599852;Alessandria
208;IT-AL0171;Biblioteca civica Luigi Rava;Comune di Carentino;Piazza A. Reggio 1;Comune;Pubblica;;False;44.8288439;8.4707318;Carentino
209;IT-AL0172;Biblioteca civica;Comune di Masio;Piazza Baiveri 3;Comune;Pubblica;;False;44.86938;8.405975;Masio
210;IT-AL0173;Biblioteca civica;Comune di Odalengo Piccolo;;Comune;NON SPECIFICATA;;;45.0720229;8.2072184;Odalengo Piccolo
211;IT-AL0174;Biblioteca civica;Comune di Silvano d'Orba;Piazzale De Gasperi 4;Comune;Pubblica;;False;44.6822931;8.6712035;Silvano d'Orba
212;IT-AL0175;Biblioteca civica;Comune di Visone;Via M. Pittavino 5;Accademie, associazioni, fondazioni, istituti, societa' (privati);Specializzata;;False;44.6623561;8.5031063;Visone
213;IT-AL0176;Biblioteca popolare Serafino Bruna;Associazione Biblioteca popolare Serafino Bruna di Cascinagrossa;Via Gramsci 31;Accademie, associazioni, fondazioni, istituti, societa' (privati);Pubblica;;False;44.9115529;8.6097951;Alessandria
214;IT-AL0177;Biblioteca dell'Istituto statale d'arte B. Cellini;Ministero dell'istruzione, dell'università e della ricerca;Strada Pontecuore 6;Presidenza del consiglio dei ministri e ministeri;Scolastica;;;45.0048304;8.6609083;Valenza
215;IT-AL0178;Biblioteca del Centro di formazione professionale della Regione Piemonte;;Via Bologna 36;NON SPECIFICATA;NON SPECIFICATA;;;45.0137594;8.6360014;Valenza
216;IT-AL0179;Archivio di Stato di Alessandria;Ministero per i beni e le attività culturali. Archivio di Stato di Alessandria;Via G. Solero 43;NON SPECIFICATA;NON SPECIFICATA;;;44.9137392;8.6259887;Alessandria
217;IT-AL0180;Archivio storico comunale;;;NON SPECIFICATA;NON SPECIFICATA;;;44.910762;8.71055;Alessandria
218;IT-AL0181;Archivio e biblioteca capitolari della Cattedrale di San Pietro;;Piazza Giovanni XXIII  1;NON SPECIFICATA;NON SPECIFICATA;;;44.9120153;8.6179692;Alessandria
219;IT-AL0182;Archivio del Centro di cultura popolare G. Ferraro;;Via Guasco 49;NON SPECIFICATA;NON SPECIFICATA;;;44.9165177;8.6168208;Alessandria
220;IT-AL0183;Museo civico;Comune di Alessandria;Via Tripoli 16;NON SPECIFICATA;NON SPECIFICATA;;;44.9117774;8.6193005;Alessandria
221;IT-AL0184;Archivio di San Domenico;;Piazza S. Domenico 3;NON SPECIFICATA;NON SPECIFICATA;;;45.1386566;8.4518646;Casale Monferrato
222;IT-AL0185;Museo d'arte e storia ebraica;;Vicolo Salomone Diper 44;NON SPECIFICATA;NON SPECIFICATA;;;45.135671;8.449768;Casale Monferrato
223;IT-AL0186;Biblioteca della Provincia di Alessandria;Provincia di Alessandria;Via dei Guasco 49;Provincia;Specializzata;;False;44.9165177;8.6168208;Alessandria
224;IT-AL0187;Biblioteca civica;Comune di Frassinello Monferrato;;Comune;NON SPECIFICATA;;;45.0333668;8.3904996;Frassinello Monferrato
225;IT-AL0188;Biblioteca civica;Comune di Altavilla Monferrato;;NON SPECIFICATA;NON SPECIFICATA;;;44.9974137;8.3686022;Altavilla Monferrato
226;IT-AL0189;Biblioteca civica;Comune di Gamalero;Piazza Aldo Moro 3;Comune;Pubblica;;False;44.8090186;8.542582;Gamalero
227;IT-AL0190;Biblioteca civica;Comune di Garbagna;;NON SPECIFICATA;NON SPECIFICATA;;;44.7814074;8.9989074;Garbagna
228;IT-AL0191;Biblioteca civica;Comune di Melazzo;;NON SPECIFICATA;NON SPECIFICATA;;;44.6450185;8.4261111;Melazzo
229;IT-AL0192;Biblioteca civica;Comune di Molino de' Torti;;NON SPECIFICATA;NON SPECIFICATA;;;45.0253333;8.8948703;Molino dei Torti
230;IT-AL0193;Biblioteca civica Eugenio Arecco;Comune di Pasturana;Via Roma 1;Comune;Pubblica;;False;44.750197;8.74841500000002;Pasturana
231;IT-AL0194;Biblioteca comunale Camillo Cappellaro;Comune di Rosignano Monferrato;Via Marconi 2;Comune;Pubblica;;False;45.0811435;8.3998028;Rosignano Monferrato
232;IT-AL0195;Biblioteca civica;Comune di San Sebastiano Curone;;NON SPECIFICATA;NON SPECIFICATA;;;44.7876666;9.0659444;San Sebastiano Curone
233;IT-AL0196;Biblioteca civica;Cumune di Sarezzano;Via alle scuole;NON SPECIFICATA;NON SPECIFICATA;;;44.8698817;8.9082362;Sarezzano
234;IT-AL0197;Biblioteca comunale Nelson Mandela;Comune di Tagliolo Monferrato;Via Roma 12;Comune;Pubblica;;;44.639065;8.6686669;Tagliolo Monferrato
235;IT-AL0198;Biblioteca civica;Comune di Tassarolo;;NON SPECIFICATA;NON SPECIFICATA;;;44.729537;8.7726666;Tassarolo
236;IT-AL0199;Biblioteca civica;Comune di Trisobbio;Via De Rossi 20;NON SPECIFICATA;NON SPECIFICATA;;;44.6624407;8.5861817;Trisobbio
237;IT-AL0200;Biblioteca civica;Comune di Villaromagnano;;NON SPECIFICATA;NON SPECIFICATA;;;44.8506296;8.8889259;Villaromagnano
238;IT-AL0201;Biblioteca dello Studio-Museo Pellizza;Comune di Volpedo;Via Rosano 3;Comune;Specializzata;;False;44.8997097;8.9784726;Volpedo
239;IT-AL0202;Biblioteca civica;Comune di Fabbrica Curone;Garadassi 7;Comune;Pubblica;;;44.755397;9.154017;Fabbrica Curone
240;IT-AL0203;Biblioteca del Liceo classico Giuseppe Saracco;Ministero dell'istruzione, dell'università e della ricerca;Corso Bagni 1;Presidenza del consiglio dei ministri e ministeri;Scolastica;;;44.6693249;8.468739;Acqui Terme
241;IT-AL0204;Biblioteca della Facoltà di economia dell'Università degli studi del Piemonte orientale Amedeo Avogadro, sede di Casale Monferrato;Università degli studi del Piemonte orientale Amedeo Avogadro. Facoltà di economia;Via O. Capello 3;Universita' statali;Istituto di insegnamento superiore;;;45.1364941;8.4574271;Casale Monferrato
242;IT-AL0205;Biblioteca civica;Comune di Castelletto d'Erro;Viale Roma 10;Comune;Pubblica;;;44.6252453;8.3943445;Castelletto d'Erro
243;IT-AL0206;Biblioteca del Liceo scientifico E. Amaldi;Ministero dell'istruzione, dell'università e della ricerca;Via Mameli 9;Presidenza del consiglio dei ministri e ministeri;Scolastica;;;44.763767;8.781416;Novi Ligure
244;IT-AL0207;Biblioteca civica Enrico Brizzolesi;Comune di Capriata d'Orba;Via Brizzolesi;NON SPECIFICATA;NON SPECIFICATA;;;44.728179;8.6913747;Capriata d'Orba
245;IT-AL0208;Biblioteca della Scuola media statale Dante Alighieri;Ministero dell'istruzione, dell'università e della ricerca;Via Verdi 6;Presidenza del consiglio dei ministri e ministeri;Scolastica;;;45.1238302;8.4548503;Casale Monferrato
246;IT-AL0209;Biblioteca dell'Asilo nido Oltreponte;;Via Adam;NON SPECIFICATA;NON SPECIFICATA;;;45.1462204;8.4451283;Casale Monferrato
247;IT-AL0210;Biblioteca dell'Istituto tecnico commerciale statale Francesco Torre;Ministero dell'istruzione, dell'università e della ricerca;Corso Roma 4;NON SPECIFICATA;NON SPECIFICATA;;;44.6769277;8.46910500000001;Acqui Terme
248;IT-AL0211;Biblioteca dell'Istituto professionale statale per i servizi commerciali e turistici Francesco Torre;Ministero dell'istruzione, dell'università e della ricerca;Corso Divisione Acqui;NON SPECIFICATA;NON SPECIFICATA;;;44.675422;8.4616178;Acqui Terme
249;IT-AL0212;Biblioteca dell'Istituto tecnico industriale statale Francesco Torre;Ministero dell'istruzione, dell'università e della ricerca;Corso C. Marx 1;Presidenza del consiglio dei ministri e ministeri;Scolastica;;;44.67698;8.46044000000006;Acqui Terme
250;IT-AL0213;Biblioteca - Centro Comunale di Cultura;Comune di Valenza;Piazza XXXI Martiri;Comune;Pubblica;;False;45.014731;8.6457613;Valenza
251;IT-AL0214;Biblioteca civica;Comune di Francavilla Bisio;Via Guasco 39;Comune;Pubblica;;False;44.7321351;8.73442679999994;Francavilla Bisio
252;IT-AL0215;Biblioteca civica;Comune di San Cristoforo;Piazzale Carpaneto Spinola 3;Comune;Pubblica;;False;44.6924478;8.7497358;San Cristoforo
253;IT-AL0216;Biblioteca della Scuola media statale Gerolamo Boccardo;Ministero dell'istruzione, dell'università e della ricerca. Istituto Comprensivo 2 - Novi Ligure  ;Via Aurelio Ferrando Scrivia 24;Presidenza del consiglio dei ministri e ministeri;Scolastica;;;44.7596923;8.8013095;Novi Ligure
254;IT-AL0217;Biblioteca civica;Comune di Orsara Bormida;Via Repubblica Argentina 8;NON SPECIFICATA;NON SPECIFICATA;;;44.6861421;8.5624417;Orsara Bormida
255;IT-AL0218;Biblioteca del Liceo Giuseppe Peano;Ministero dell'istruzione, dell'università e della ricerca;Via Vittorio Veneto 3/a;Presidenza del consiglio dei ministri e ministeri;Scolastica;;True;44.8798857;8.85735620000003;Tortona
256;IT-AL0219;Biblioteca della Filarmonica di Casale Monferrato;;Via Mameli 29;NON SPECIFICATA;NON SPECIFICATA;;;45.1361449;8.4532509;Casale Monferrato
257;IT-AL0220;Biblioteca Parco Capanne di Marcarolo;PARCO NATURALE DELLE CAPANNE DI MARCAROLO;Via G. Baldo, 29;Regione;Specializzata;;False;44.6350078;8.7135899;Lerma
258;IT-AL0221;Biblioteca civica ;Comune di Mombello Monferrato;Piazza Municipio 2;Comune;Pubblica;;False;45.133042;8.25095199999998;Mombello Monferrato
259;IT-AL0222;Biblioteca comunale Gabriele Serrafero ;Comune di Camino;Via Roma 37;Comune;Pubblica;True;False;45.1622654;8.2872415;Camino
260;IT-AL0223;Archivio diocesano;;Via Seminario 5;NON SPECIFICATA;NON SPECIFICATA;;;44.8977431;8.866322;Tortona
261;IT-AL0224;Biblioteca civica Cesare Pavese;Comune di Serralunga di Crea;Via Villaforte 5;Comune;Pubblica;;;45.1003109;8.283099;Serralunga di Crea
262;IT-AL0225;Biblioteca della Fondazione CR Tortona;Fondazione Cassa di Risparmio di Tortona;Corso Leoniero 6;Accademie, associazioni, fondazioni, istituti, societa' (privati);Specializzata;;False;44.897415;8.8648547;Tortona
263;IT-AL0226;Biblioteca civica;Comune di Lerma;Piazza Genova 2;Comune;Pubblica;;False;44.6355557;8.7137433;Lerma
264;IT-AL0227;Biblioteca dell'Istituto ITIS Giulio Ciampini;Ministero dell'istruzione, dell'università e della ricerca. Istituto di Istruzione Superiore Ciampini-Boccardo;Via Verdi 44;Presidenza del consiglio dei ministri e ministeri;Scolastica;;;44.761258;8.79321200000004;Novi Ligure
265;IT-AL0228;Biblioteca civica;;Frazione Molini 35;NON SPECIFICATA;NON SPECIFICATA;;;44.584879;8.868421;Fraconalto
266;IT-AL0229;"Biblioteca delle ragazze e dei ragazzi ""Emanuele Luzzati""";Comune di Casale Monferrato;Piazza Castello;Comune;Pubblica;True;False;45.1366382;8.4477793;Casale Monferrato
267;IT-AL0230;Biblioteca del Centro documentazione Sacri Monti;Ente di gestione dei Sacri Monti;Cascina Valperone, 1;Enti territoriali;Specializzata;;True;45.0926609;8.2686;Ponzano Monferrato
268;IT-AL0231;Biblioteca civica;Comune di Ricaldone;Via M. Talice, 13;Comune;Pubblica;;False;44.7340459;8.4694622;Ricaldone
269;IT-AL0232;Biblioteca del Club Alpino italiano - CAI Sezione Davide e Luigi Guerci;Club alpino italiano - CAI. Sezione di Valenza;Giardini Aldo Moro;Accademie, associazioni, fondazioni, istituti (pubblici);Specializzata;;;45.0119849;8.63456159999999;Valenza
270;IT-AL0233;Biblioteca civica G. Borsalino;Comune di Pecetto di Valenza;Via Borsalino 4;Comune;Pubblica;;;44.9894001;8.6698754;Pecetto di Valenza
271;IT-AL0234;Biblioteca Civica;Comune di Casalnoceto;Via Volpedo 1;Comune;Pubblica;;False;44.9118851;8.98338680000006;Casalnoceto
272;IT-AL0235;Biblioteca civica;Comune di Ottiglio;Via Mazza 33/b;Comune;Pubblica;;False;45.054414;8.340655;Ottiglio
273;IT-AL0236;Biblioteca civica;Comune di Cantalupo Ligure;Via Santa Caterina;Comune;Pubblica;;False;44.7192983;9.0445281;Cantalupo Ligure
274;IT-AL0237;Biblioteca civica;Comune di Voltaggio;Via Garibaldi, 2;Comune;Pubblica;;False;44.6201488;8.8426783;Voltaggio
275;IT-AL0238;Biblioteca N. Bobbio del Dipartimento di giurisprudenza e scienze politiche, economiche e sociali dell'Università degli studi del Piemonte Orientale Amedeo Avogadro - DIGSPES - Sede di Alessandria ;Università degli studi del Piemonte Orientale Amedeo Avogadro;Via Cavour 84;Universita' statali;Specializzata;True;False;44.9092471;8.6156487;Alessandria
276;IT-AL0239;Biblioteca Civica;Comune di Ponti;Piazza XX Settembre 1;Comune;Pubblica;;False;44.6273913;8.3656391;Ponti
277;IT-AL0302;Biblioteca della CISL AL-AT Michele Crosio;CISL AL-AT;Via Tripoli, 14;Accademie, associazioni, fondazioni, istituti, societa' (privati);Specializzata;True;False;44.9124573;8.61931140000002;Alessandria
278;IT-AL0303;Biblioteca Comunale;Comune di Coniolo;Via Dalmazio Birago 13;Comune;Pubblica;False;False;45.147028;8.37212699999998;Coniolo
279;IT-AL0308;Biblioteca del nuovo circolo ILVA;Nuovo circolo ILVA S.C.R.L.;Corso Piave 2;Accademie, associazioni, fondazioni, istituti, societa' (privati);Pubblica;True;False;44.7591047;8.79095159999997;Novi Ligure
280;IT-AL0309;Biblioteca dell'Istituto di istruzione superiore Cesare Balbo;Ministero dell'istruzione, dell'Università e della ricerca. Istituto di iistruzione superiore Cesare Balbo;Via Galeotto del Carretto, 1 ;Presidenza del consiglio dei ministri e ministeri;Scolastica;True;True;45.1353169905135;8.44702177116392;Casale Monferrato
281;IT-AL0310;Biblioteca Biomedica - Fondo storico G. Maconi;Azienda ospedaliera Santi Antonio e Biagio e Cesare Arrigo  ;Via Venezia, 16;Aziende ed enti del servizio sanitario nazionale;Specializzata;True;True;44.9151933;8.62134850000007;Alessandria
282;IT-AL0311;Biblioteca Civica;Comune di Grognardo;Piazza della Chiesa 1;Comune;Pubblica;False;;44.6298555679846;8.49175483928684;Grognardo
283;IT-AL0312;Biblioteca Civica ;Comune di Cartosio;Via Roma 31 ;Comune;Pubblica;False;False;44.5928252216724;8.42043084655757;Cartosio
284;IT-AN0001;Biblioteca comunale Luciano Benincasa;Comune di Ancona;Via Bernabei 30;Comune;Pubblica;;False;43.619718375695;13.5123604343586;Ancona
285;IT-AN0002;Biblioteca capitolare;;Piazzale del Duomo;NON SPECIFICATA;NON SPECIFICATA;;;43.6254321;13.5102851;Ancona
286;IT-AN0003;Biblioteca dell'Istituto regionale per la storia del movimento di liberazione nelle Marche;Istituto regionale per la storia del movimento di liberazione nelle Marche;Via Villafranca 1;Accademie, associazioni, fondazioni, istituti (pubblici);Specializzata;;False;43.6171803;13.5125173;Ancona
287;IT-AN0004;Biblioteca dell'Accademia marchigiana di scienze, lettere, arti;Accademia marchigiana di scienze, lettere, arti;Piazza Benvenuto Stracca 1;Accademie, associazioni, fondazioni, istituti (pubblici);Specializzata;;False;43.6225003;13.5111992;Ancona
288;IT-AN0005;Biblioteca dell'Archivio di Stato di Ancona;Ministero dei beni e delle attività culturali e del turismo. Archivio di Stato di Ancona;Via Alessandro Maggini 80;Direzione generale Archivi;Specializzata;;False;43.5977214;13.5035288;Ancona
289;IT-AN0007;Biblioteca centrale dei frati cappuccini delle Marche;Frati minori cappuccini. Curia provincializia di Ancona;Via Cappuccini 1;Enti ecclesiastici;Specializzata;;False;43.5982693;13.5100059;Ancona
290;IT-AN0008;Biblioteca della Provincia delle Marche dei frati minori conventuali;Frati minori conventuali. Curia provincializia di Ancona;Via Scalone S. Francesco 8;Enti ecclesiastici;Specializzata;;True;43.621968;13.51231;Ancona
291;IT-AN0009;Biblioteca diocesana Ancona;Diocesi di Ancona-Osimo;Via Birarelli ,18;Enti ecclesiastici;Importante non specializzata;False;False;43.6229162;13.5123164;Ancona
292;IT-AN0010;Biblioteca della Soprintendenza Archeologia, belle arti e paesaggio delle Marche. Architettura;Ministero dei beni e delle attività culturali e del turismo. Soprintendenza Archeologia, belle arti e paesaggio delle Marche;;Direzione generale archeologia, belle arti e paesaggio;NON SPECIFICATA;;;43.6236363;13.510964;Ancona
293;IT-AN0012;Biblioteca della Soprintendenza Archeologia, belle arti e paesaggio delle Marche;Ministero dei beni e delle attività culturali e del turismo. Soprintendenza Archeologia, belle arti e paesaggio delle Marche;Via Birarelli 18;Direzione generale archeologia, belle arti e paesaggio;Specializzata;;True;43.62258;13.51221;Ancona
294;IT-AN0015;Biblioteca della Deputazione di storia patria per le Marche Amedeo Crivellucci;Deputazione di storia patria per le Marche;Piazza B. Stracca 1;Accademie, associazioni, fondazioni, istituti (pubblici);Specializzata;;False;43.6223287;13.5113045;Ancona
295;IT-AN0016;Biblioteca Augusto Tamburini;USL 12 Ancona;Via C. Colombo 106;Aziende ed enti del servizio sanitario nazionale;Specializzata;;False;43.5995556;13.5047804;Ancona
296;IT-AN0017;Biblioteca comunale Luciano Benincasa. Sezione esterna di Collemarino;;;NON SPECIFICATA;NON SPECIFICATA;;;0.0;0.0;Ancona
297;IT-AN0018;Biblioteca dell'Istituto marchigiano Jacques Maritain;Istituto marchigiano Jacques Maritain;Via Birarelli, 18;Accademie, associazioni, fondazioni, istituti (pubblici);Specializzata;;False;43.6229162;13.5123164;Ancona
298;IT-AN0020;Biblioteca comunale;Comune di Arcevia;Corso Mazzini;Comune;Pubblica;;False;43.4996654;12.9398079;Arcevia
299;IT-AN0024;Biblioteca comunale;Comune di Camerano;Piazza S. Apollinaire;Comune;Pubblica;;False;43.530565;13.5533;Camerano
300;IT-AN0026;Biblioteca comunale T. Lippera;Comune di Cerreto d'Esi;Via Tribbio, 15;Comune;Pubblica;;False;43.3215951158556;12.9842305183411;Cerreto d'Esi
301;IT-AN0027;Biblioteca comunale;Comune di Chiaravalle;Piazza Mazzini 7;Comune;Importante non specializzata;;False;43.6016172;13.3253772;Chiaravalle
302;IT-AN0029;Biblioteca del Convento dei cappuccini;Frati minori cappuccini Convento di Corinaldo;Via Cappuccini 18;Enti ecclesiastici;Specializzata;;True;43.6591033;13.0441861;Corinaldo
303;IT-AN0030;Biblioteca comunale;Comune di Corinaldo;Vicolo S. Agostino 1;Comune;Pubblica;;False;43.6492215;13.0476744;Corinaldo
304;IT-AN0031;Biblioteca comunale;Comune di Cupramontana;Via Nazario Sauro 1;Comune;Pubblica;;False;43.4454511;13.1154109;Cupramontana
305;IT-AN0033;Biblioteca comunale;Comune di Fabriano;Via C. Battisti 31;Comune;Importante non specializzata;;False;43.3365438;12.9063803;Fabriano
306;IT-AN0034;Biblioteca del Capitolo della cattedrale di S. Venanzo;Capitolo della cattedrale di Fabriano;Via Balbo 15;Enti ecclesiastici;Specializzata;;False;43.3346232;12.9040903;Fabriano
307;IT-AN0035;Biblioteca diocesana;Diocesi di Fabriano-Matelica;P.zza Papa Giovanni Paolo II, 11;Enti ecclesiastici;Importante non specializzata;False;False;43.3295802;12.9163419;Fabriano
308;IT-AN0036;Biblioteca del Monastero S. Silvestro;Monastero S. Silvestro Abate;Via S. Silvestro, 66;Enti ecclesiastici;Specializzata;True;False;43.3073273;12.8978208;Fabriano
309;IT-AN0038;Biblioteca dei monaci camaldolesi;;Piazza Manin 12;NON SPECIFICATA;NON SPECIFICATA;;;43.3369859;12.906147;Fabriano
310;IT-AN0039;Biblioteca storico-francescana e picena;Ordine Frati Minori Provincia Picena San Giacomo della Marca;Convento dei frati minori - Piazza S. Antonio 4;Enti ecclesiastici;Specializzata;True;False;43.6288695186223;13.393164209201;Falconara Marittima
311;IT-AN0040;Biblioteca comunale;Comune di Falconara Marittima;Via Stamura 12;Comune;Importante non specializzata;;False;43.6307776;13.3915674;Falconara Marittima
312;IT-AN0042;Biblioteca Baldeschi Balleani;;Via S. Lucia Fontedamo;NON SPECIFICATA;NON SPECIFICATA;;;43.522318;13.254805;Jesi
313;IT-AN0043;Biblioteca dell'ex Studio teologico dei frati minori;Ente frati minori OFM. Convento S. Francesco di Jesi;Via S. Francesco 52;Enti ecclesiastici;Specializzata;;False;43.5218405;13.2340269;Jesi
314;IT-AN0044;Biblioteca dell'Ospedale Augusto Murri;;Via Paradiso 47;NON SPECIFICATA;NON SPECIFICATA;;;43.5269817;13.2178393;Jesi
315;IT-AN0045;Biblioteca diocesana Pier Matteo Petrucci;Diocesi di Jesi;Piazza Federico II, 8;Enti ecclesiastici;Specializzata;True;False;43.524141;13.245324;Jesi
316;IT-AN0046;Biblioteca del Convento dei frati cappuccini;Frati minori cappuccini.  Convento di Jesi;Via S. Pietro martire 4;Enti ecclesiastici;Specializzata;;False;43.52572;13.2410826;Jesi
317;IT-AN0047;Biblioteca comunale Attilio Brugiamolini;Comune di Loreto;Traversa della Croce, 2;Comune;Pubblica;;False;43.4387169;13.60624;Loreto
318;IT-AN0048;Biblioteca dei padri cappuccini;Frati minori cappuccini. Convento di Loreto;Palazzo apostolico;Enti ecclesiastici;Specializzata;;True;43.439875;13.6060971;Loreto
319;IT-AN0049;Biblioteca comunale Gaspare Spontini;Comune di Monte San Vito;Viale B. Gigli 23;Comune;Pubblica;;False;43.6003617;13.2682044;Monte San Vito
320;IT-AN0050;Biblioteca comunale;Comune di Montecarotto;Piazza Vittoria;Comune;Pubblica;;False;43.5267036;13.0642323;Montecarotto
321;IT-AN0051;Biblioteca comunale;Comune di Montemarciano;Via Umberto I;Comune;Pubblica;;False;43.6398714;13.3105599;Montemarciano
322;IT-AN0052;Biblioteca del Centro sociale di educazione permanente;;Piazza Romagnoli 6;NON SPECIFICATA;NON SPECIFICATA;;;43.6013402;13.2136486;Morro d'Alba
323;IT-AN0053;Biblioteca dell'Istituto Campana;Istituto Campana per l'istruzione permanente;Piazza Dante 4;Accademie, associazioni, fondazioni, istituti (pubblici);Importante non specializzata;;False;43.486384;13.485764;Osimo
324;IT-AN0054;Biblioteca comunale Francesco Cini;Comune di Osimo;Via F. e M. Campana 15;Comune;Importante non specializzata;;False;43.486646;13.485067;Osimo
325;IT-AN0055;Biblioteca popolare circolante Antenna;;Municipio;NON SPECIFICATA;NON SPECIFICATA;;;43.5254632;13.3943003;Osimo
326;IT-AN0056;Biblioteca del Seminario vescovile;Diocesi di Ancona-Osimo;P.zza Episcopio, 7;Enti ecclesiastici;Specializzata;True;False;43.4990717;13.4378102;Osimo
327;IT-AN0057;Biblioteca del Convento S. Giuseppe da Copertino;Frati minori conventuali. Convento S. Giuseppe da Copertino di Osimo;Piazza Gallo 10;Enti ecclesiastici;Specializzata;;True;43.4864031;13.4838539;Osimo
328;IT-AN0058;Biblioteca comunale;Comune di Ostra;Via Gramsci 10;Comune;Importante non specializzata;;False;43.612876;13.157412;Ostra
329;IT-AN0061;Biblioteca comunale Giuseppe Tanfani;Comune di Ostra Vetere;Piazza Satellico 3;Comune;Pubblica;;False;43.6039558;13.0585058;Ostra Vetere
330;IT-AN0062;Biblioteca del Centro sociale di educazione permanente;;Piazza Leopardi 1;NON SPECIFICATA;NON SPECIFICATA;;;43.5110816;13.074917;Poggio San Marcello
331;IT-AN0063;Biblioteca del Circolo culturale Oscar Franceschini;Circolo culturale Oscar Franceschini;Via Antonelli;Accademie, associazioni, fondazioni, istituti, societa' (privati);Pubblica;;False;43.6574709;13.1463895;Ripe
332;IT-AN0064;Biblioteca del Centro sociale di educazione permanente;;Via Circonvallazione;Comune;Pubblica;;False;43.5769185;13.2059508;San Marcello
333;IT-AN0065;Biblioteca comunale;Comune di Sassoferrato;Piazza Matteotti 5;Comune;Pubblica;;False;43.4359359;12.8588821;Sassoferrato
334;IT-AN0066;Biblioteca dei frati minori del Convento La Pace;Frati minori OFM. Convento La Pace di Sassoferrato;Via La Pace 1;Enti ecclesiastici;Importante non specializzata;;False;43.4340068;12.8592426;Sassoferrato
335;IT-AN0069;Biblioteca comunale Antonelliana;Comune di Senigallia;Via Ottorino Manni 1;Comune;Importante non specializzata;;False;43.7156438;13.2196933;Senigallia
336;IT-AN0070;Biblioteca Marcolini;;Via Portici Ercolani 68;NON SPECIFICATA;NON SPECIFICATA;;;43.7160852;13.2181795;Senigallia
337;IT-AN0071;Biblioteca del Seminario vescovile;Seminario vescovile di Senigallia;Via Cellini 13;Enti ecclesiastici;Specializzata;;False;43.7156917;13.2080768;Senigallia
338;IT-AN0074;Biblioteca comunale;Comune di Serra San Quirico;Piazza della Libertà 14;Comune;Pubblica;;False;43.4476458;13.0152514;Serra San Quirico
339;IT-AN0076;Biblioteca dell'Istituto Adriano Olivetti di studi per la gestione dell'economia e delle aziende;Istituto Adriano Olivetti di studi per la gestione dell'economia e delle aziende;Via Oliviero Zuccarini, 15;Accademie, associazioni, fondazioni, istituti, societa' (privati);Specializzata;;False;43.5667961;13.5066073;Ancona
340;IT-AN0077;Biblioteca dell'Istituto nazionale riposo e cura per anziani - INRCA;Istituto nazionale riposo e cura per anziani - INRCA;Via della Montagnola 81;Accademie, associazioni, fondazioni, istituti, societa' (privati);Specializzata;;True;43.5966625;13.50728;Ancona
341;IT-AN0079;Biblioteca dell'Istituto regionale per la protostoria;;Vicolo delle Carceri 2;NON SPECIFICATA;NON SPECIFICATA;;;43.50002;12.939953;Arcevia
342;IT-AN0080;Biblioteca del Centro sociale di educazione permanente;;Municipio;NON SPECIFICATA;NON SPECIFICATA;;;43.5831296;13.1697037;Belvedere Ostrense
343;IT-AN0081;Biblioteca comunale;Comune di Castelfidardo;Via Mazzini, 3;Comune;Pubblica;;False;43.4648085978485;13.5457920968895;Castelfidardo
344;IT-AN0083;Biblioteca comunale Emidio Bianchi;Comune di Filottrano;Vicolo Beltrami, 6 ;Comune;Pubblica;;False;43.4357021;13.350608;Filottrano
345;IT-AN0084;Biblioteca della Santa Casa;Delegazione pontificia per il Santuario della Santa Casa di Loreto;Piazza del Santuario;Enti ecclesiastici;Specializzata;False;False;43.4363086;13.6189078;Loreto
346;IT-AN0086;Biblioteca del Centro sociale di educazione permanente;;Via Flaminia 15;NON SPECIFICATA;NON SPECIFICATA;;;43.5141871;13.6202891;Numana
347;IT-AN0087;Biblioteca dei cappuccini;Frati minori cappuccini. Convento di Ostra;Viale Matteotti 97;Enti ecclesiastici;Pubblica;;True;43.6050173;13.1491429;Ostra
348;IT-AN0088;Biblioteca del Centro sociale di educazione permanente;;Municipio;NON SPECIFICATA;NON SPECIFICATA;;;43.4956196;13.3135893;Santa Maria Nuova
349;IT-AN0089;Biblioteca diocesana Mastai Ferretti;Diocesi di Senigallia;Via Mastai, 14;Enti ecclesiastici;Specializzata;False;False;43.7147744;13.217499;Senigallia
350;IT-AN0090;Biblioteca comunale;Comune di Serra de' Conti;Piazza Gramsci;Comune;Pubblica;;False;43.5426989;13.0376126;Serra de' Conti
351;IT-AN0091;Biblioteca comunale;Comune di Staffolo;Via del Maestro, 32;Comune;Pubblica;;False;43.4333317;13.1856195;Staffolo
352;IT-AN0092;Biblioteca comunale Planettiana;Comune di Jesi;Piazza A. Colocci 2;Comune;Importante non specializzata;;False;43.5211945;13.247664;Jesi
353;IT-AN0094;Biblioteca comunale Planettiana. Sezione ragazzi;Comune di Jesi;Piazza Federico II;Comune;Pubblica;;False;43.5243247;13.2453815;Jesi
354;IT-AN0096;Biblioteca dell'Istituto internazionale di studi piceni;Istituto internazionale di studi piceni;Piazza Matteotti 5;NON SPECIFICATA;NON SPECIFICATA;;;43.4359359;12.8588821;Sassoferrato
355;IT-AN0097;Biblioteca del Centro regionale per la storia dei movimenti sociali cattolici e la Resistenza nelle Marche;Centro regionale per la storia dei movimenti sociali cattolici e la Resistenza nelle Marche;Viale Lazzarini;NON SPECIFICATA;NON SPECIFICATA;;;43.4354386;12.8584016;Sassoferrato
356;IT-AN0098;Centro di ateneo di documentazione - Biblioteca economico-giuridica-sociologica - Università politecnica delle Marche;Università politecnica delle Marche;Piazza Martelli 8;Universita' statali;Istituto di insegnamento superiore;;False;43.6199617;13.5172717;Ancona
357;IT-AN0099;Biblioteca centrale della Facoltà di ingegneria dell'Università degli studi di Ancona;Università degli studi di Ancona. Facoltà di ingegneria;Via delle Brecce bianche;Universita' statali;Istituto di insegnamento superiore;;False;43.5815143;13.5147553;Ancona
358;IT-AN0100;Biblioteca Medica Torrette;Università politecnica delle Marche;Via Tronto;Universita' statali;Istituto di insegnamento superiore;True;False;43.6044325880742;13.4567446301636;Ancona
359;IT-AN0101;Biblioteca del Dipartimento di elettronica e automatica dell'Università degli studi di Ancona;Università degli studi di Ancona. Dipartimento di elettronica e automatica;Via delle Brecce bianche;Universita' statali;Istituto di insegnamento superiore;;True;43.5815143;13.5147553;Ancona
360;IT-AN0102;Biblioteca del Dipartimento di scienze dei materiali e della terra dell'Università degli studi di Ancona;Università degli studi di Ancona. Dipartimento di scienze dei materiali e della terra;Via delle Brecce bianche;Universita' statali;Istituto di insegnamento superiore;;False;43.5815143;13.5147553;Ancona
361;IT-AN0103;Biblioteca del Dipartimento di energetica dell'Università degli studi di Ancona;Università degli studi di Ancona. Dipartimento di energetica;Via delle Brecce bianche;Universita' statali;Istituto di insegnamento superiore;;False;43.5815143;13.5147553;Ancona
362;IT-AN0105;Biblioteca del Dipartimento di economia dell'Università degli studi di Ancona;Università degli studi di Ancona. Dipartimento di economia;Piazza Martelli 8;Universita' statali;Istituto di insegnamento superiore;;False;43.6199617;13.5172717;Ancona
363;IT-AN0106;Biblioteca del Dipartimento di matematica Vito Volterra dell'Università degli studi di Ancona;Università degli studi di Ancona. Dipartimento di matematica;Via delle Brecce bianche;Universita' statali;Istituto di insegnamento superiore;;True;43.5815143;13.5147553;Ancona
364;IT-AN0107;Biblioteca del Dipartimento di meccanica dell'Università degli studi di Ancona;Università degli studi di Ancona. Dipartimento di meccanica;Via delle Brecce bianche;Universita' statali;Istituto di insegnamento superiore;;True;43.5822728;13.5150631;Ancona
365;IT-AN0108;Biblioteca comunale;Comune di Barbara;Via Castello 4;Comune;Pubblica;;False;43.5808534;13.0245683;Barbara
366;IT-AN0109;Biblioteca del Centro beni culturali della Regione Marche;Regione Marche;Via Trieste 21;Regione;Specializzata;;True;43.6147813;13.5263424;Ancona
367;IT-AN0110;Biblioteca dell'Abbazia di S. Maria in Castagnola;Cistercensi di S. Bernardo d'Italia Abbazia S. Maria in Castagnola di Chiaravalle;Piazza G. Garibaldi;Enti ecclesiastici;Specializzata;;True;43.6006073;13.3260346;Chiaravalle
368;IT-AN0111;Biblioteca del Centro sociale di educazione permanente;Comune di Monsano;Via Trento e Trieste;Comune;Pubblica;;False;43.5639988;13.2501413;Monsano
369;IT-AN0112;Biblioteca dei padri passionisti;Passionisti. Convento di San Marcello;Via Montelatiero;Enti ecclesiastici;Importante non specializzata;;True;43.5414622;13.2281448;San Marcello
370;IT-AN0113;Biblioteca S. Giacomo della Marca del Convento S. Maria della misericordia;Frati minori OFM Convento La Misericordia di Osimo;Via Ungheria;Enti ecclesiastici;Pubblica;;True;43.4849052;13.4774793;Osimo
371;IT-AN0114;Biblioteca del Capitolo della cattedrale;Capitolo della cattedrale di Osimo;Piazza Episcopio 3;Enti ecclesiastici;Importante non specializzata;;True;43.4678998;13.4742993;Osimo
372;IT-AN0115;Biblioteca del Monastero delle benedettine di S. Luca;Benedettine cassinesi Monastero S. Luca di Fabriano;Via Saffi 34;Enti ecclesiastici;Specializzata;;True;43.3386171;12.9061221;Fabriano
373;IT-AN0116;Biblioteca comunale;Comune di Castelleone di Suasa;Via 4 Novembre;Comune;Pubblica;;False;43.6075781;12.9762128;Castelleone di Suasa
374;IT-AN0117;Biblioteca dell'Istituto di scienza e tecnica delle costruzioni della Facoltà di ingegneria dell'Università degli studi di Ancona;Università degli studi di Ancona. Facoltà di ingegneria. Istituto di scienza e tecnica delle costruzioni;Via delle Brecce bianche;Universita' statali;Istituto di insegnamento superiore;;False;43.5815143;13.5147553;Ancona
375;IT-AN0118;Biblioteca dell'Istituto di anatomia e istologia patologica della Facoltà di medicina e chirurgia dell'Università degli studi di Ancona;Università degli studi di Ancona. Facoltà di medicina e chirurgia. Istituto di anatomia e istologia patologica;Via Conca, 71;Universita' statali;Istituto di insegnamento superiore;;False;43.6064499;13.4547739;Ancona
376;IT-AN0119;Biblioteca del Monastero delle carmelitane;Carmelitane Monastero di Jesi;Via S. Marco 11;Enti ecclesiastici;Specializzata;;True;43.5257268;13.2438564;Jesi
377;IT-AN0121;Biblioteca del Pontificio seminario marchigiano Pio XI;"Pontificio Seminario Regionale Marchigiano ""PIO XI""";Via Monte d'Ago, 87;Enti ecclesiastici;Specializzata;True;False;43.5880552;13.4961386;Ancona
378;IT-AN0122;Biblioteca dell'Assemblea Legislativa  - Consiglio regionale;Regione Marche;Piazza Cavour 23;Regione;Specializzata;;;43.6171;13.5112165;Ancona
379;IT-AN0123;Biblioteca della Soprintendenza Archivistica e bibliografica dell'Umbria e delle Marche. Sede di Ancona;Ministero dei beni e delle attività culturali e del turismo. Soprintendenza Archivistica e bibliografica dell'Umbria e delle Marche;Via dell'Agricoltura 1;Direzione generale Archivi;Specializzata;;True;43.5959249;13.502642;Ancona
380;IT-AN0124;Biblioteca della Federazione provinciale del PDS;Federazione provinciale del PDS;Via Cialdini 43;Accademie, associazioni, fondazioni, istituti, societa' (privati);Specializzata;;False;43.6167952;13.5087338;Ancona
381;IT-AN0125;Biblioteca dell'Istituto di disegno, architettura e urbanistica della Facoltà di ingegneria dell'Università degli studi di Ancona;Università degli studi di Ancona. Facoltà di ingegneria. Istituto di disegno, architettura e urbanistica;Via delle Brecce bianche;Universita' statali;Istituto di insegnamento superiore;;False;43.5815143;13.5147553;Ancona
382;IT-AN0126;Centro di ateneo di documentazione - Polo di Monte Dago dell'Università Politecnica delle Marche;Università politecnica delle Marche;Via delle Brecce bianche;Universita' statali;Istituto di insegnamento superiore;;False;43.581418;13.5149604000001;Ancona
383;IT-AN0127;Biblioteca dell'Istituto di ricerche sulla pesca marittima;Consiglio nazionale delle ricerche. Istituto di ricerche sulla pesca marittima;Largo Fiera della pesca;Aziende ed amministrazioni dello stato ad ordinamento autonomo;Specializzata;;True;43.612965;13.5032327;Ancona
384;IT-AN0128;Biblioteca comunale;;;NON SPECIFICATA;NON SPECIFICATA;;;43.494074;13.0828148;Castelplanio
385;IT-AN0129;Biblioteca comunale;;;NON SPECIFICATA;NON SPECIFICATA;;;43.4556481;13.1737592;San Paolo di Jesi
386;IT-AN0130;Biblioteca del Monastero S. Margherita;;;NON SPECIFICATA;NON SPECIFICATA;;;43.3361361;12.9046964;Fabriano
387;IT-AN0131;Biblioteca dell'Istituto musicale G.B. Pergolesi;;Via Zappata 1;NON SPECIFICATA;NON SPECIFICATA;;False;43.6186574;13.5132108;Ancona
388;IT-AN0132;Biblioteca del Centro sociale di educazione permanente;;;NON SPECIFICATA;NON SPECIFICATA;;;43.4824979;13.0681312;Rosora
389;IT-AN0133;Biblioteca dell'Istituto regionale ricerca educativa - IRRE;Istituto regionale ricerca educativa - IRRE. Marche;Corso Garibaldi 78;Aziende ed amministrazioni dello stato ad ordinamento autonomo;NON SPECIFICATA;;;43.6179757;13.5127323;Ancona
390;IT-AN0134;Biblioteca della Scuola diretta a fini speciali di scienze e tecniche cartarie dell'Università degli studi di Camerino. Sede di Fabriano;Università degli studi di Camerino. Sede di Fabriano. Scuola diretta a fini speciali di scienze e tecniche cartarie;Via don Riganelli 26;Universita' statali;Istituto di insegnamento superiore;;False;43.3399304;12.91223;Fabriano
391;IT-AN0135;Biblioteca dell'Istituto di studi storici, sociologici e linguistici della Facoltà di economia dell'Università degli studi di Ancona;Università degli studi di Ancona. Facoltà di economia. Istituto di studi storici, sociologici e linguistici;Piazza Martelli 8;Universita' statali;Istituto di insegnamento superiore;;True;43.6199617;13.5172717;Ancona
392;IT-AN0136;Biblioteca dell'Archivio di Stato di Ancona. Sezione di Fabriano;Ministero dei beni e delle attività culturali e del turismo. Archivio di Stato di Ancona;Via C. Battisti 23;Direzione generale Archivi;NON SPECIFICATA;;;43.3365438;12.9063803;Fabriano
393;IT-AN0138;Archivio di Stato di Ancona;Ministero dei beni e delle attività culturali e del turismo. Archivio di Stato di Ancona;Via A. Maggini 80;Direzione generale Archivi;NON SPECIFICATA;;;43.5977214;13.5035288;Ancona
394;IT-AN0139;Archivio privato Baccelli;;Via G. Fuà 24;NON SPECIFICATA;NON SPECIFICATA;;True;43.5648477;13.5171521;Ancona
395;IT-AN0140;Archivio della Banda musicale cittadina;;Via E. Vannini 7;NON SPECIFICATA;NON SPECIFICATA;;True;43.5810404;13.1666496;Belvedere Ostrense
396;IT-AN0141;Biblioteca privata Mancinforte-Sperelli;;Via S. Francesco 25;NON SPECIFICATA;NON SPECIFICATA;;;43.5310911;13.5524054;Camerano
397;IT-AN0142;Biblioteca privata Dottori;;Via C. Battisti 69;NON SPECIFICATA;NON SPECIFICATA;;True;43.4476343;13.1116422;Cupramontana
398;IT-AN0143;Archivio del Corpo bandistico Città di Fabriano;;Via S. Filippo 17;NON SPECIFICATA;NON SPECIFICATA;;True;43.3355048;12.9055628;Fabriano
399;IT-AN0144;Archivio privato Benigni-Olivieri;;Piazzetta del Podestà 10;NON SPECIFICATA;NON SPECIFICATA;;;43.3365659;12.9048561;Fabriano
400;IT-AN0145;Archivio musicale del Monastero benedettine S. Margherita;;Via del Polo 33;Enti ecclesiastici;NON SPECIFICATA;;True;43.2760272;13.0016702;Fabriano
401;IT-AN0146;Archivio capitolare della Collegiata di S. Nicolò;;Piazza Cairoli 20;Enti ecclesiastici;NON SPECIFICATA;;True;43.3379811;12.901247;Fabriano
402;IT-AN0147;Archivio del Monastero di S. Silvestro;;Via S. Silvestro Abate 66;Enti ecclesiastici;NON SPECIFICATA;;;43.3073273;12.8978208;Fabriano
403;IT-AN0148;Archivio capitolare della Cattedrale Basilica di S. Venanzo;;Via Balbo 15;Enti ecclesiastici;NON SPECIFICATA;;False;43.3346232;12.9040903;Fabriano
404;IT-AN0149;Archivio sorelle Paccapelo;;Largo Grammercato 10;NON SPECIFICATA;NON SPECIFICATA;;True;43.5193853;13.246135;Jesi
405;IT-AN0150;Archivio parrocchiale di S. Maria del Piano;;Via S. Maria 9;Enti ecclesiastici;NON SPECIFICATA;;True;43.518263;13.2519069;Jesi
406;IT-AN0151;Archivio della Banda musicale Francesco Basili;;Via Bramante 119;NON SPECIFICATA;NON SPECIFICATA;;;43.4387844;13.6128403;Loreto
407;IT-AN0152;Centro studi G. Spontini;;Via Spontini 17;NON SPECIFICATA;NON SPECIFICATA;;False;43.4765677;13.1178683;Maiolati Spontini
408;IT-AN0153;Museo Spontiniano;;Via Spontini 11;NON SPECIFICATA;NON SPECIFICATA;;False;43.4767478;13.1182044;Maiolati Spontini
409;IT-AN0154;Archivio storico parrocchiale;;Via Castello 19;Enti ecclesiastici;NON SPECIFICATA;;True;43.5262628;13.0617942;Montecarotto
410;IT-AN0155;Archivio musicale della Parrocchia di S. Pietro Apostolo;;Via Umberto I  1;Enti ecclesiastici;NON SPECIFICATA;;True;43.6397713;13.3096562;Montemarciano
411;IT-AN0156;Archivio privato Antonio Cardinali;;Piazza Tarsetti 21;Privati - Famiglie;NON SPECIFICATA;;True;43.600735;13.213301;Morro d'Alba
412;IT-AN0157;Biblioteca privata famiglia Nembrini-Gonzaga;;Strada Valcasagno 10;Privati - Famiglie;NON SPECIFICATA;;True;43.4950617;13.6032554;Numana
413;IT-AN0158;Archivio musicale della Chiesa già Cattedrale;;Piazza Duomo 7;Enti ecclesiastici;NON SPECIFICATA;;True;43.4861979;13.4804036;Osimo
414;IT-AN0159;Archivio storico comunale;Comune di Osimo;Via Pompeiana 2;Comune;NON SPECIFICATA;;False;43.4866076;13.4849164;Osimo
415;IT-AN0160;Archivio musicale del Monastero di S. Maria Maddalena;;Via Marconi 4;Enti ecclesiastici;NON SPECIFICATA;;True;43.5421332;13.0373706;Serra de' Conti
416;IT-AN0161;Archivio storico comunale;Comune di Senigallia;Piazza del Duca 1;Comune;NON SPECIFICATA;;False;43.7149697;13.2195816;Senigallia
417;IT-AN0162;Archivio vescovile storico;;Piazza Garibaldi 3;Enti ecclesiastici;NON SPECIFICATA;;False;43.7142821;13.2147587;Senigallia
418;IT-AN0163;Archivio privato Fabio Bernacchia;;Via Goldoni 38;NON SPECIFICATA;NON SPECIFICATA;;True;43.7262766;13.2053082;Senigallia
419;IT-AN0164;Archivio capitolare della Cattedrale Basilica;;Piazza Garibaldi 3;Enti ecclesiastici;NON SPECIFICATA;;;43.7142821;13.2147587;Senigallia
420;IT-AN0165;Archivio musicale del Monastero di S. Cristina;;Via dell'Angelo 4;Enti ecclesiastici;NON SPECIFICATA;;True;43.7157005;13.2228282;Senigallia
421;IT-AN0166;Archivio storico comunale;Comune di San Marcello;Via Matteotti 20;Comune;NON SPECIFICATA;;True;43.5767512;13.2056048;San Marcello
422;IT-AN0167;Archivio musicale della Parrocchia di S. Pietro;;Piazza S. Pietro 1;Enti ecclesiastici;NON SPECIFICATA;;True;43.4352603;12.8585631;Sassoferrato
423;IT-AN0168;Museo diocesano;;Piazza Duomo 9;Enti ecclesiastici;NON SPECIFICATA;;;43.6254908;13.5100552;Ancona
424;IT-AN0169;Biblioteca Fondazione Angelo Colocci;Fondazione Angelo Colocci;Via Angeloni, 3;Accademie, associazioni, fondazioni, istituti (pubblici);Istituto di insegnamento superiore;;False;43.5217915692152;13.2422036894798;Jesi
425;IT-AN0170;Biblioteca della Corte di appello di Ancona;Corte di appello di Ancona;Via G. Carducci 3;Aziende ed amministrazioni dello stato ad ordinamento autonomo;Specializzata;;;43.6187547;13.5134219;Ancona
426;IT-AN0171;Biblioteca comunale L. Marcelli Jidalla;Comune di Numana;Piazza Santuario 24;Comune;Pubblica;;False;43.5134075;13.6217597;Numana
427;IT-AN0172;Biblioteca del Centro studi Oriente Occidente;Centro studi Oriente Occidente;Via Bernabei 30;NON SPECIFICATA;NON SPECIFICATA;;;43.6199061;13.5120532;Ancona
428;IT-AN0173;Biblioteca dell'Associazione marchigiana per la ricerca e la valorizzazione delle fonti musicali - ARiM;;Via Bernabei 32;NON SPECIFICATA;NON SPECIFICATA;;;43.6199061;13.5120532;Ancona
429;IT-AN0174;Museo diocesano;;Piazza Duomo 3;NON SPECIFICATA;NON SPECIFICATA;;;43.4862124;13.480265;Osimo
430;IT-AN0175;Archivio provinciale dei Frati minori;;Via Matteotti 7;NON SPECIFICATA;NON SPECIFICATA;;;43.6287648;13.3942409;Falconara Marittima
431;IT-AN0176;Biblioteca Centro documentazione didattica;Ministero dell'istruzione, dell'università e della ricerca;Via Capanna 62/a;Presidenza del consiglio dei ministri e ministeri;Scolastica;;;43.7047308;13.2183457;Senigallia
432;IT-AN0177;Biblioteca scolastica del Liceo scientifico Enrico Medi;Ministero dell'istruzione, dell'università e della ricerca;Via IV Novembre 21;Presidenza del consiglio dei ministri e ministeri;Scolastica;;;43.71326;13.22175;Senigallia
433;IT-AN0178;Biblioteca dell'Istituto Gramsci Marche - IGM;Istituto Gramsci Marche;Via Cialdini 41;Accademie, associazioni, fondazioni, istituti (pubblici);Specializzata;;False;43.6168779;13.5087699;Ancona
434;IT-AN0179;Biblioteca comunale;comune di Ripe;Piazza Leopardi 30;Comune;Pubblica;;False;43.671163;13.1065503;Ripe
435;IT-AN0180;Biblioteca dell'Istituto professionale industria e artigianato Bettino Padovano;Ministero dell'istruzione, dell'università e della ricerca;Via Rosmini, 22/b;Presidenza del consiglio dei ministri e ministeri;Scolastica;;;43.7058544;13.2161599;Senigallia
436;IT-AN0181;Biblioteca della Fondazione Chiaravalle-Montessori;Fondazione Chiaravalle-Montessori;Piazza Mazzini 10;Accademie, associazioni, fondazioni, istituti (pubblici);Specializzata;;;43.6015928455082;13.3254214404755;Chiaravalle
437;IT-AN0182;Biblioteca dell'Istituto tecnico industriale Vito Volterra;Ministero dell'istruzione, dell'università e della ricerca;Via Esino, 36;Presidenza del consiglio dei ministri e ministeri;Scolastica;;;43.6085966;13.4543367;Ancona
438;IT-AN0183;Biblioteca dell'Istituto tecnico commerciale e per geometri Ferruccio Corinaldesi;Ministero dell'istruzione, dell'università e della ricerca;Via Tommaso D'Aquino, 4;Presidenza del consiglio dei ministri e ministeri;Scolastica;;;43.708234;13.2148006;Senigallia
439;IT-AN0184;Biblioteca del Liceo classico Giulio Perticari;Ministero dell'istruzione, dell'università e della ricerca;Via Tommaso D'Aquino, 2;Presidenza del consiglio dei ministri e ministeri;Scolastica;;;43.7084366;13.2142098;Senigallia
440;IT-AN0185;Biblioteca La Fornace;Comune di Maiolati Spontini;Via Fornace, 23;Comune;Pubblica;;False;43.5058507542299;13.1367916269836;Maiolati Spontini
441;IT-AN0186;Biblioteca Casa delle Culture;Casa delle Culture;Via Vallemiano 46;Accademie, associazioni, fondazioni, istituti, societa' (privati);Pubblica;;False;43.6080547;13.5140028000001;Ancona
442;IT-AN0187;Piccola Biblioteca della Shoah;Unione Montana dell'Esino-Frasassi;Via Dante 268 ;Unione di Comuni;Specializzata;;False;43.3492687406541;12.9262897698669;Fabriano
443;IT-AN0188;Biblioteca comunale;Comune di Genga;Largo Leone XII;Comune;Pubblica;;False;43.4292859069083;12.9353544074097;Genga
444;IT-AN0189;Biblioteca comunale;Comune di Mergo;Piazza Leopardi 23;Comune;Pubblica;;False;43.4715198;13.0379227147499;Mergo
445;IT-AN0190;Biblioteca comunale;Comune di Rosora;Via Montessori 18;Comune;Pubblica;;False;43.4721101;13.0663083;Rosora
446;IT-AN0191;Biblioteca dell'Istituto Professionale di Stato per l'Industria e l'Artigianato G.B. Miliani;Ministero dell'istruzione, dell'università e della ricerca;Via V. Veneto, 1;Presidenza del consiglio dei ministri e ministeri;Scolastica;;;43.3392378;12.9136188;Fabriano
447;IT-AN0192;Biblioteca dell'Istituto Tecnico Agrario Statale G. Vivarelli;Ministero dell'istruzione, dell'università e della ricerca;Via Cappuccini, 5;Presidenza del consiglio dei ministri e ministeri;Scolastica;;;43.3327391;12.9068068;Fabriano
448;IT-AN0193;Biblioteca comunale;Comune di Polverigi;Via G. Matteotti 24;Comune;Pubblica;;False;43.5263599;13.391273;Polverigi
449;IT-AN0194;Biblioteca della CGIL - Confederazione generale italiana del lavoro;;Via Villafranca 1;NON SPECIFICATA;NON SPECIFICATA;;;43.6171699;13.5125006;Ancona
450;IT-AN0195;Biblioteca dell'Assemblea legislativa delle Marche - Sezione Giuridica;Regione Marche;Piazza Cavour 23;Regione;Specializzata;;False;43.6163703;13.5164255;Ancona
451;IT-AN0196;Biblioteca dell'Assemblea legislativa delle Marche - Archivio regionale della produzione editoriale;Regione Marche;Piazza Cavour 23;Regione;Specializzata;;False;43.6163703;13.5164255;Ancona
452;IT-AN0197;Biblioteca dell'Assemblea legislativa delle Marche - Fondo Santarelli e Fondo Barca;Regione Marche;Piazza Cavour 23;Regione;Specializzata;;;43.6163703;13.5164255;Ancona
453;IT-AN0198;Biblioteca del Centro cooperativo mazziniano ;Centro cooperativo mazziniano ;Via Chiostergi 10 ;Accademie, associazioni, fondazioni, istituti, societa' (privati);Specializzata;;;43.714413;13.2214352;Senigallia
455;IT-AN0304;Biblioteca della Fondazione Cassa di Risparmio di Jesi;Fondazione Cassa di Risparmio di Jesi;Piazza Colocci, 4;Accademie, associazioni, fondazioni, istituti, societa' (privati);Specializzata;;False;43.523334992646;13.2447849570084;Senigallia
456;IT-AN0330;"Biblioteca Comunale ""Sara Iommi""";Comune di Agugliano;Via Nazario Sauro 1;Comune;Pubblica;True;False;43.5437115370589;13.3871995091927;Jesi
457;IT-AN0331;Biblioteca dell'Istituto d'Istruzione Superiore Galilei;Ministero dell'istruzione, dell'università e della ricerca. Istituto d'Istruzione Superiore Galilei - Jesi;Viale del Lavoro 38;Presidenza del consiglio dei ministri e ministeri;Scolastica;;;43.533570834563;13.2546462264587;Agugliano
458;IT-AO0001;Biblioteca diocesana;Seminario Vescovile di Aosta;Via Xavier de Maistre, 17;Enti ecclesiastici;Importante non specializzata;True;False;45.7385389;7.3205677;Jesi
459;IT-AO0002;Biblioteca capitolare del Duomo;Capitolo della Cattedrale di Aosta;Piazza Giovanni XXIII;Enti ecclesiastici;Pubblica;;False;45.7350001;7.313234;Aosta
460;IT-AO0005;Biblioteca della Collegiata di S. Orso;Capitolo della insigne Collegiata dei SS. Pietro e Orso di Aosta;Via Linty 2;Enti ecclesiastici;Specializzata;;False;45.7394743;7.3256098;Aosta
461;IT-AO0006;Biblioteca dell'Archivio storico regionale;Regione autonoma Valle d'Aosta;Piazza Accademia S. Anselmo 2;Regione;Specializzata;;False;45.7350001;7.313234;Aosta
462;IT-AO0007;Biblioteca dell'Accademia di S. Anselmo;Accademia di S. Anselmo;Via C. Ollietti 3;Accademie, associazioni, fondazioni, istituti (pubblici);Importante non specializzata;;False;45.7355084;7.3224916;Aosta
463;IT-AO0008;Biblioteca comunale;Comune di Arvier;Via S. Antoine, 12;Comune;Pubblica;;False;45.702962;7.1632385;Aosta
464;IT-AO0009;Biblioteca comunale;Comune di Avise;Fraz. Runaz, 56;Comune;Pubblica;;False;45.7089808;7.140276;Arvier
465;IT-AO0010;Biblioteca comunale;Comune di Ayas;Rue Tiquit;Comune;Pubblica;;False;45.8123182;7.688741;Avise
466;IT-AO0011;Biblioteca comunale;Comune di Aymavilles;Loc. Capoluogo, 1;Comune;Pubblica;;False;45.7025907;7.2078417;Ayas
467;IT-AO0012;Biblioteca comunale;Comune di Bionaz;loc. Plan de Veyne;Comune;Pubblica;;False;45.8672037;7.4017222;Aymavilles
468;IT-AO0013;Biblioteca comunale;Comune di Brusson;Rue La Pila, 36;Comune;Pubblica;;False;45.7601868;7.7303159;Bionaz
469;IT-AO0014;Biblioteca comunale;Comune di Champdepraz;Fraz. Fabbrica,  165/bis;Comune;Pubblica;;False;45.6852834;7.6564784;Brusson
470;IT-AO0015;Biblioteca comunale Pierino Danna;Comune di Champorcher;Frazione Castello, n. 1;Comune;Pubblica;;False;45.6242351;7.620673;Champdepraz
471;IT-AO0017;Biblioteca comprensoriale Mgr. Duc;Regione autonoma Valle d'Aosta;Via E. Chanoux 112;Regione;Pubblica;;False;45.7491108;7.6151743;Champorcher
472;IT-AO0018;Biblioteca comunale;Comune di Cogne;Via Bourgeois;Comune;Pubblica;;False;45.608355;7.3558184;Chatillon
473;IT-AO0019;Biblioteca comunale;Comune di Courmayeur;Viale Monte Bianco 40;Comune;Pubblica;;False;45.7945598;6.9699974;Cogne
474;IT-AO0020;Biblioteca comprensoriale;Regione autonoma Valle d'Aosta;Piazza XXV Aprile 4;Comunita' montana;Pubblica;;False;45.603402;7.766347;Courmayeur
475;IT-AO0021;Biblioteca intercomunale Abbé Henry - succursale di Doues;Comune di Doues;Capoluogo;Comune;Pubblica;;False;45.8188767451347;7.30601899524538;Donnas
476;IT-AO0022;Biblioteca comunale;Comune di Gignod;Fraz. Capoluogo, 1;Comune;Pubblica;;False;45.7607892;7.298929;Doues
477;IT-AO0024;Biblioteca comunale;Comune di Hone;Via E. Chanoux, 31 bis;Comune;Pubblica;;False;45.611947;7.735592;Gignod
478;IT-AO0025;Biblioteca comunale Emile Chanoux;Comune di Introd;Loc. Plan d'Introd, 2;Comune;Pubblica;;False;45.688781;7.190239;Hone
479;IT-AO0026;Biblioteca comunale;Comune di Issime;Loc. Capoluogo, 11;Comune;Pubblica;;False;45.6867791;7.855031;Introd
480;IT-AO0027;Biblioteca comunale;Comune di Issogne;Loc. La Colombière,18;Comune;Pubblica;;False;45.6545368;7.6896263;Issime
481;IT-AO0028;Biblioteca comunale;Comune di La Magdeleine;Clou;Comune;Pubblica;;False;45.8113842;7.6183016;Issogne
482;IT-AO0029;Biblioteca comunale;Comune di La Thuille;Via Debernard, 11;Comune;Pubblica;;False;45.6594033;6.865269;La Magdeleine
483;IT-AO0030;Biblioteca comunale;Comune di Montjovet;Loc. Berriaz, 4;Comune;Pubblica;;False;45.703602;7.674441;La Thuile
484;IT-AO0032;Biblioteca comunale;Comune di Oyace;Loc. La Crétaz, 1;Comune;Pubblica;;False;45.8506113;7.3822574;Montjovet
485;IT-AO0035;Biblioteca comunale;Comune di Quart;Bas-Villair;Comune;Pubblica;;False;45.7473121544138;7.39148139953613;Oyace
486;IT-AO0040;Biblioteca comunale;Comune di Torgnon;;Comune;Pubblica;;False;45.8018406988106;7.57038181349185;Quart
487;IT-AO0041;Biblioteca comunale;Comune di Valtournenche;Via Roma 21;Comune;Pubblica;;False;45.87581;7.62273;Torgnon
488;IT-AO0042;Biblioteca comprensoriale;Regione autonoma Valle d'Aosta;Loc. Murasses;Comunita' montana;Pubblica;;False;45.6644968;7.6916251;Valtournenche
489;IT-AO0043;Biblioteca comunale;Comune di Aosta;Viale Europa 5;Comune;Pubblica;;False;45.7340245;7.2968385;Verrès
490;IT-AO0044;Biblioteca comunale;Comune di Aosta;Piazza battaglione Cervino 1;Comune;Pubblica;;False;45.7385584;7.3410556;Aosta
491;IT-AO0045;Biblioteca biomedica dell'Ospedale di Aosta;Regione autonoma Valle d'Aosta;Viale Ginevra 3;Regione;Specializzata;;False;45.7407325;7.3146514;Aosta
492;IT-AO0049;Biblioteca comunale;Comune di Etroubles;Via Mont-Vélan, 1;Comune;Pubblica;;False;45.821574;7.2304814;Aosta
493;IT-AO0050;Biblioteca specializzata Walser;Centro studi e cultura Walser;Villa Margherita;Accademie, associazioni, fondazioni, istituti (pubblici);Specializzata;;False;45.7773188;7.8274051;Etroubles
494;IT-AO0051;Biblioteca comunale Mons. Giuseppe Capra;Comune di Pont-Saint-Martin;Via Resistenza, 5;Comune;Pubblica;;False;45.6012522;7.7949318;Gressoney-Saint-Jean
495;IT-AO0052;Biblioteca comunale;Comune di Pré-Saint-Didier;Viale Monte Bianco, 17;Comune;Pubblica;;False;45.7643994;6.9848583;Pont-Saint-Martin
496;IT-AO0053;Bibliothèque du Centre d'études francoprovençales René Willien;Centre d'études francoprovençales René Willien;Fossaz-Dessus;Accademie, associazioni, fondazioni, istituti (pubblici);Specializzata;;False;45.7168593;7.1649386;Prè-Saint-Didier
497;IT-AO0054;Biblioteca comunale;Comune di Saint-Pierre;Via C. Gex, 29;Comune;Pubblica;;False;45.702962;7.1632385;Saint-Nicolas
498;IT-AO0055;Biblioteca comunale;Comune di Saint-Vincent;Via Vuillerminaz 7;Comune;Pubblica;;False;45.750477;7.6463735;Saint-Pierre
499;IT-AO0057;Biblioteca comunale;Comune di Saint-Oyen;Via G.S. Bernardo, 64;Comune;Pubblica;;False;45.8250489;7.2160615;Saint-Vincent
500;IT-AO0058;Biblioteca per degenti dell'Ospedale di Aosta;Regione autonoma Valle d'Aosta;Viale Ginevra 3;Regione;Pubblica;;False;45.7407325;7.3146514;Saint-Oyen
501;IT-AO0059;Biblioteca intercomunale Abbé Henry - sede centrale;Comune di Valpelline;Loc. Capoluogo, 6/a;Comune;Pubblica;;False;45.824678;7.324594;Aosta
502;IT-AO0060;Biblioteca comunale;Comune di Saint-Nicolas;Fossaz Dessus;Comune;Pubblica;;False;45.7168593;7.1649386;Valpelline
503;IT-AO0061;Biblioteca comunale;Comune di Saint-Rhemy-en-Bosses;;Comune;Pubblica;;False;45.8354515;7.1847174;Saint-Nicolas
504;IT-AO0062;Biblioteca comunale;Comune di Antey-Saint-André;;Comune;Pubblica;;False;45.8061911;7.591058;Saint-Rhémy-en-Bosses
505;IT-AO0063;Biblioteca comprensoriale;Regione autonoma Valle d'Aosta;Viale Gran San Bernardo, 34;Regione;Pubblica;;False;45.7580022;7.036757;Antey-Saint-Andrè
506;IT-AO0064;Biblioteca regionale Bruno Salvadori;Regione autonoma Valle d'Aosta;Via Torre del Lebbroso 2;Regione;Pubblica;True;False;45.7352924;7.315311;Morgex
507;IT-AO0065;Biblioteca dell'Istituto storico della Resistenza in Valle d'Aosta;Istituto storico della Resistenza in Valle d'Aosta;Via X. De Maistre 24;Accademie, associazioni, fondazioni, istituti (pubblici);Specializzata;;False;45.7386191;7.3205613;Aosta
508;IT-AO0066;Biblioteca del Club Alpino Italiano - CAI;Club alpino italiano - CAI. Sezione di Aosta;Piazza E. Chanoux 8;Accademie, associazioni, fondazioni, istituti (pubblici);Specializzata;;False;45.7395368;7.3194637;Aosta
509;IT-AO0067;Biblioteca comunale;Comune di Sarre;Tissoret , 33;Comune;Pubblica;;False;45.7185835;7.2552666;Aosta
510;IT-AO0068;Biblioteca dell'Istituto regionale ricerca educativa - IRRE;Istituto regionale di ricerca educativa - IRRE. Valle d'Aosta;Via G. Elter 8;Aziende ed amministrazioni dello stato ad ordinamento autonomo;Specializzata;;False;45.7351782;7.3112202;Sarre
511;IT-AO0069;Biblioteca comunale;Comune di Pollein;Capoluogo, 1;Comune;Pubblica;;False;45.7287354;7.3552981;Aosta
512;IT-AO0070;Biblioteca comunale;Comune di Aosta;;Comune;Pubblica;;False;45.7350001;7.313234;Pollein
513;IT-AO0071;Biblioteca comunale;Comune di Aosta;;Comune;Pubblica;;False;45.7211111;7.3262777;Aosta
514;IT-AO0072;Archivio storico regionale valdostano;;Via Ollietti, 13;NON SPECIFICATA;NON SPECIFICATA;;;45.7350001;7.313234;Aosta
515;IT-AO0073;Archivio del Convento dei Cappuccini;;;NON SPECIFICATA;NON SPECIFICATA;;;45.7526666;7.6187777;Aosta
516;IT-AO0074;Biblioteca intercomunale Abbé Henry - succursale di Allein;;Frazione Ayez 8;NON SPECIFICATA;NON SPECIFICATA;;;45.8039886785941;7.28028774261475;Chatillon
517;IT-AO0075;Biblioteca comunale;Comune di Chamois;Frazione Corgnolaz 40;Comune;Pubblica;;False;45.8388;7.62132999999994;Allein
518;IT-AO0076;Biblioteca comunale;Comune di Gressan;Frazione La Bagne 15;Comune;Pubblica;;False;45.7200147;7.28566590000003;Chamois
519;IT-AO0077;Biblioteca comunale;Comune di La Salle;Via Col Serena 3;Comune;Pubblica;;False;45.7466127302664;7.07238482750859;Gressan
520;IT-AO0078;Biblioteca intercomunale Abbé Henry - succursale di Ollomont;Comune di Ollomont;Frazione Capoluogo 47;Comune;Pubblica;;False;45.8493236409215;7.3102370087372;La Salle
521;IT-AO0079;Biblioteca comunale;Comune di Rhemes-Saint-Georges;Frazione Vieux 1;Comune;Pubblica;;False;45.6536266;7.1554092;Ollomont
522;IT-AO0080;Biblioteca comunale;Comune di Saint-Christophe;Località Chef-lieu 4;Comune;Pubblica;;False;45.7482855258049;7.35833196004944;Rhemes-Saint-Georges
523;IT-AO0081;Biblioteca comunale;Comune di Saint-Denis;Località Capoluogo 1;Comune;Pubblica;;False;45.7530814395454;7.55574704841308;Saint-Christophe
524;IT-AO0082;Biblioteca comunale;Comune di Saint-Marcel;Località Prelaz 4;Comune;Pubblica;;False;45.7312608240091;7.44477380555725;Saint-Denis
525;IT-AO0083;Biblioteca comunale;Comune di Brissogne;Fraz. Pâcou, 3;Comune;Pubblica;;;45.7343284642783;7.41626501083374;Saint-Marcel
526;IT-AO0084;Biblioteca di Ateneo dell'Università della Valle d'Aosta;Università della Valle d'Aosta - Université de la Vallée d'Aoste;Strada Cappuccini 2/A;Universita' non statali;Istituto di insegnamento superiore;True;True;45.7431646;7.31810719999999;Brissogne
527;IT-AO0151;Biblioteca Comunale;Comune di Charvensod;Loc. Capoluogo 1;Comune;Pubblica;;False;45.7282404272941;7.3538451698364;Aosta
528;IT-AO0152;Biblioteca Comunale;Comune di Roisan;Fraz. Martinet 3;Comune;Pubblica;;False;45.7830587938048;7.31033019126278;Charvensod
529;IT-AO0154;Biblioteca sociale del Centro Numismatico Valdostano ;Centro Numismatico Valdostano;Via Monte Pasubio, 13;Accademie, associazioni, fondazioni, istituti, societa' (privati);Specializzata;True;False;45.73738;7.31133;Roisan
530;IT-AP0002;Biblioteca comunale;Comune di Amandola;Via Marconi 2;Comune;Pubblica;;False;42.9805498;13.3555555;Aosta
531;IT-AP0003;Biblioteca dell'Archivio di Stato di Ascoli Piceno;Ministero dei beni e delle attività culturali e del turismo. Archivio di Stato di Ascoli Piceno;Via San Serafino da Montegranaro 8/C;Direzione generale Archivi;Specializzata;;False;42.857483;13.5668552;Amandola
532;IT-AP0004;Biblioteca del Seminario vescovile;Seminario vescovile di Ascoli Piceno;Largo Cattaneo 2;Enti ecclesiastici;Specializzata;;False;42.8554018;13.5749771;Ascoli Piceno
533;IT-AP0006;Biblioteca comunale Giulio Gabrielli;Comune di Ascoli Piceno;Corso Mazzini, 90;Comune;Importante non specializzata;;False;42.8551718920253;13.5785382431999;Ascoli Piceno
534;IT-AP0008;Biblioteca dell'Istituto sperimentale per l'orticultura di Salerno. Sezione periferica di Ascoli Piceno;;Via Croce 47;NON SPECIFICATA;NON SPECIFICATA;;;42.8532853;13.590006;Ascoli Piceno
535;IT-AP0009;Biblioteca del Centro sociale di educazione permanente;;Piazza G. Leopardi 6;NON SPECIFICATA;NON SPECIFICATA;;;43.0915898;13.53876;Ascoli Piceno
536;IT-AP0011;Biblioteca del Convento dei cappuccini;Frati minori cappuccini Convento di Fermo;Via Padri cappuccini 17;Enti ecclesiastici;Importante non specializzata;;False;43.155053;13.704324;Belmonte Piceno
537;IT-AP0012;Biblioteca civica Romolo Spezioli;Comune di Fermo;Piazza del Popolo 63;Comune;Importante non specializzata;;False;43.1614928;13.718252;Fermo
538;IT-AP0013;Biblioteca del Convento della Madonna della misericordia;Agostiniani scalzi Convento Madonna della misericordia di Fermo;Via A. Murri 1;Enti ecclesiastici;Specializzata;;False;43.1612191;13.7059191;Fermo
539;IT-AP0014;Biblioteca del Seminario arcivescovile di Fermo F. De Angelis;Seminario arcivescovile di Fermo;Via S. Alessandro, 3;Enti ecclesiastici;Specializzata;True;False;43.167442;13.704475;Fermo
540;IT-AP0015;Biblioteca del Centro comunitario Gesu' risorto;Centro comunitario Gesu' risorto;Via Vallescura 47;Accademie, associazioni, fondazioni, istituti (pubblici);Pubblica;;False;43.1963656362993;13.7800026089844;Fermo
541;IT-AP0016;Biblioteca comunale F.lli Ermenegildo e Francesco Catalini;Comune di Grottazzolina;Piazza Umberto I, 9;Comune;Pubblica;;False;43.1118000937066;13.6035505416642;Fermo
542;IT-AP0018;Biblioteca del Centro sociale di educazione permanente;;Municipio;NON SPECIFICATA;NON SPECIFICATA;;;43.0284229;13.5807876;Grottazzolina
543;IT-AP0020;Biblioteca tomistica S. Alessio;Comune di Monsampolo del Tronto;Corso V. Emanuele III  89;Comune;Specializzata;;False;42.8976275;13.7945026;Monsampietro Morico
544;IT-AP0023;Biblioteca del Centro sociale di educazione permanente;Comune di Montedinove;Piazza Marconi;Comune;Pubblica;;False;42.9718582;13.5888558;Monsampolo del Tronto
545;IT-AP0024;Biblioteca del Centro sociale di educazione permanente;;Piazza Repubblica 2;NON SPECIFICATA;NON SPECIFICATA;;;43.0518395;13.7511986;Montedinove
546;IT-AP0025;Biblioteca comunale;Comune di Montegiorgio;Largo Leopardi 1;Comune;Pubblica;;False;43.1324531;13.5371436;Montefiore dell'Aso
547;IT-AP0026;Biblioteca Luciani Ranier;Famiglia Luciani;Piazza Villa Luciani 3;Privati - Famiglie;Pubblica;;False;43.26141;13.649275;Montegiorgio
548;IT-AP0027;Biblioteca comunale Francesco Vecchioli;Comune di Montelparo;Largo Marconi 3;Comune;Pubblica;;False;43.01819;13.53491;Montegranaro
549;IT-AP0029;Biblioteca comunale Luigi Centanni;Comune di Monterubbiano;Via Pagani 15;Comune;Pubblica;;False;43.08571;13.716828;Montelparo
550;IT-AP0030;Biblioteca comunale;Comune di Offida;Via Roma 15;Comune;Pubblica;;False;42.933965;13.689355;Monterubbiano
551;IT-AP0031;Biblioteca comunale Luigi Mannocchi;Comune di Petritoli;Piazza Mazzini 29;Comune;Pubblica;;False;43.0672488;13.6556971;Offida
552;IT-AP0033;Biblioteca diocesana di Ripatransone;Diocesi di San Benedetto del Tronto-Ripatransone-Montalto;Piazza Ascanio Condivi, 18;Enti ecclesiastici;Importante non specializzata;True;False;43.00168;13.7631189;Petritoli
553;IT-AP0035;Biblioteca comunale Aldo Gabrielli;Comune di Ripatransone;Piazza 20 Settembre 12;Comune;Pubblica;;False;43.0000385;13.7622722;Ripatransone
554;IT-AP0037;Biblioteca dello Studentato eucaristico;Sacramentini Studentato teologico di San Benedetto del Tronto;Via F. Crispi 22;Enti ecclesiastici;Specializzata;;False;42.9501767;13.8808107;Ripatransone
555;IT-AP0038;Biblioteca multimediale Giuseppe Lesca;Comune di San Benedetto del Tronto;Viale A. De Gasperi 124;Comune;Importante non specializzata;;False;42.9435452;13.8837247;San Benedetto del Tronto
556;IT-AP0039;Biblioteca del Centro sociale di educazione permanente;;Piazza Roma 2;NON SPECIFICATA;NON SPECIFICATA;;;43.0808882;13.4920154;San Benedetto del Tronto
557;IT-AP0041;Biblioteca comunale;Comune di Torre San Patrizio;Largo Beccaria;Comune;Pubblica;;False;43.184398;13.607693;Servigliano
558;IT-AP0043;Biblioteca dell'Archeoclub d'Italia;;;NON SPECIFICATA;NON SPECIFICATA;;;42.9839666;13.688657;Torre San Patrizio
559;IT-AP0044;Biblioteca dei Cavalieri dell'utopia;;Via dell'Università;NON SPECIFICATA;NON SPECIFICATA;;;43.1617368;13.7171089;Cossignano
560;IT-AP0048;Biblioteca civica Gino Pieri;Societa' operaia di mutuo soccorso e Comune di Porto San Giorgio;c.so G. Garibaldi, 140;Comune;Importante non specializzata;;False;43.1785309;13.7939216;Fermo
561;IT-AP0054;Biblioteca comunale;Comune di Porto Sant'Elpidio;Via S. Giovanni Bosco 26/a;Comune;Pubblica;;False;43.2576129;13.7553956;Porto San Giorgio
562;IT-AP0058;Biblioteca delle suore benedettine;;Via Roma 73;NON SPECIFICATA;NON SPECIFICATA;;;42.9337466;13.6880034;Porto Sant'Elpidio
563;IT-AP0059;Biblioteca comunale Giulio Gabrielli. Posto di prestito di Monticelli;Comune di Ascoli Piceno;;Comune;Pubblica;;False;42.8475303;13.5668302;Offida
564;IT-AP0060;Biblioteca comunale Giulio Gabrielli. Posto di prestito di Borgo Solestà;Comune di Ascoli Piceno;Via S. Serafino;Comune;Pubblica;;False;42.856354;13.5580861;Ascoli Piceno
565;IT-AP0061;Biblioteca comunale Giulio Gabrielli. Posto di prestito di Campo Parignano;Comune di Ascoli Piceno;Via Montegrappa 10/a;Comune;Pubblica;;False;42.8652631;13.7699692;Ascoli Piceno
566;IT-AP0062;Biblioteca comunale Antonio Santoni;Comune di Sant'Elpidio a Mare;Viale A. Moro;Comune;Pubblica;;False;43.2310219;13.6869101;Ascoli Piceno
567;IT-AP0063;Biblioteca dei frati cappuccini;Frati minori cappuccini Convento di Ascoli Piceno;Via Mussini 3;Enti ecclesiastici;Specializzata;;False;42.8586202;13.5688486;Sant'Elpidio a Mare
568;IT-AP0064;Biblioteca del Capitolo della cattedrale;Capitolo della cattedrale di Ascoli Piceno;Piazza Arringo;Enti ecclesiastici;Specializzata;;False;42.8536283;13.5777099;Ascoli Piceno
569;IT-AP0067;Biblioteca della Congregazione dei figli dell'amore misericordioso;Congregazione dei figli dell'amore misericordioso;Corso Cefalona 70;NON SPECIFICATA;Specializzata;;False;43.161888;13.715968;Ascoli Piceno
570;IT-AP0068;Biblioteca-libreria Agostianiani di S. Andrea;Agostiniani OSA Convento di Montegiorgio;Via Cavour 27;Enti ecclesiastici;Specializzata;;False;43.1112516;13.6043222;Fermo
571;IT-AP0069;Biblioteca dei frati cappuccini;Frati minori cappuccini Convento di Montegiorgio;Via Cappuccini;Enti ecclesiastici;Importante non specializzata;;False;43.1273524;13.5284354;Montegiorgio
572;IT-AP0070;Biblioteca del Convento dei frati minori S. Giacomo della Marca;Frati minori OFM Convento S. Giacomo di Monteprandone;Via le Grazie;Enti ecclesiastici;Importante non specializzata;;False;42.9203814;13.8380793;Montegiorgio
573;IT-AP0071;Biblioteca del Convento dei cappuccini;Frati minori cappuccini Convento di Offida;Largo Cappuccini 43;Enti ecclesiastici;Specializzata;;False;42.9364268;13.6999214;Monteprandone
574;IT-AP0072;Biblioteca di Architettura dell'Università degli studi di Camerino. Sede di Ascoli Piceno;Università degli studi di Camerino. Sede di Ascoli Piceno. Facoltà di architettura;Viale della Rimembranza;Universita' statali;Istituto di insegnamento superiore;;False;42.8524419;13.5724957;Offida
575;IT-AP0073;Biblioteca comunale;Comune di Montegranaro;Via Conventati 18;Comune;Pubblica;;False;43.2329248;13.6313052;Ascoli Piceno
576;IT-AP0074;Biblioteca comunale;Comune di Monteprandone;Via Corso;Comune;Pubblica;;False;42.9198624;13.83456;Montegranaro
577;IT-AP0075;Biblioteca comunale. Sezione di Centobuchi;Comune di Centobuchi;Via De Gasperi;Comune;Pubblica;;False;42.9544467;13.8385085;Monteprandone
578;IT-AP0076;Biblioteca dell'Istituto geografico polare Silvio Zavatti;Comune di Fermo;Villa Vitali - Viale Trento;Comune;Specializzata;;False;43.1677584;13.7285593;Monteprandone
579;IT-AP0077;Biblioteca malacologica;Associazione picena di malacologia;Via Adriatica nord 240;Accademie, associazioni, fondazioni, istituti (pubblici);Specializzata;;False;43.0335786;13.8564008;Fermo
580;IT-AP0078;Biblioteca comunale;;;NON SPECIFICATA;NON SPECIFICATA;;;42.9909629;13.6101666;Cupra Marittima
581;IT-AP0079;Biblioteca di storia contemporanea Ugo Toria;Istituto provinciale per la storia del movimento di liberazione nelle Marche;Corso Mazzini 39;Accademie, associazioni, fondazioni, istituti (pubblici);Specializzata;;False;42.8551108;13.5784376;Montalto delle Marche
582;IT-AP0080;Biblioteca comunale;;;NON SPECIFICATA;NON SPECIFICATA;;;42.8892219;13.773078;Ascoli Piceno
583;IT-AP0081;Biblioteca comunale di Arquata del Tronto;Comune di Arquata del Tronto;Via Ulpiani;Comune;Pubblica;;False;42.9422783;13.8843137;Spinetoli
584;IT-AP0082;Biblioteca comunale;;Contrada Vallicella;NON SPECIFICATA;NON SPECIFICATA;;;42.8764605;13.7406323;San Benedetto del Tronto
